timestamp,time,f_scale,location,county,state,latitude,longitude,comments
2017-01-21 15:08:00+00:00,1508,UNK,2 NW CRAWFORD,LEE,AL,32.48,-85.22,EF0 TORNADO WITH WINDS OF 80MPH BRIEFLY TOUCHED DOWN NORTH OF CRAWFORD IN THE HALEY WOODS SUBDIVISION CAUSING MINOR DAMAGE TO SEVERAL ROOFS AND WOODEN FENCES. PATH LENG (BMX)
2016-11-30 18:35:00+00:00,1835,UNK,2 SSE WAVERLY,LEE,AL,32.71,-85.56,AN EF1 TOR WITH PEAK WINDS OF 90 MPH TOUCHED DOWN E OF CAMP HILL AND MOVED INTO FAR SW CHAMBERS CO. PATH LENGTH OF 3.2 MI. PATH WIDTH OF 300 YDS. THE DURATION OF THE TO (BMX)
2017-01-21 15:20:00+00:00,1520,UNK,SMITHS STATION,LEE,AL,32.54,-85.1,A TORNADO AFFECTED AREAS JUST SOUTHWEST OF SMITH STATION. THE TORNADO WAS RATED AN EF1 WITH WINDS ESTIMATED AROUND 90 MPH. THE MOST SIGNIFICANT DAMAGE OCCURRED AT THE H (BMX)
2016-03-02 02:30:00+00:00,0230,UNK,2 NE OPELIKA,LEE,AL,32.68,-85.35,TORNADO REPORTED WITH TDS SIGNATURE... EMA REPORTED SEVERAL TREES DOWN (BMX)
2017-01-21 14:56:00+00:00,1456,UNK,2 NNE BEAUREGARD,LEE,AL,32.56,-85.36,AN EF-0 TORNADO TOUCHED DOWN ALONG LEE ROAD 413... CAUSING SOME SHINGLE DAMAGE AND UPROOTING SEVERAL TREES ALONG ITS BRIEF PATH TOWARD THE NORTHEAST... ENDING ALONG CR- (BMX)
2017-01-21 14:49:00+00:00,1449,UNK,2 S CHEWACLA STATE PARK,LEE,AL,32.53,-85.48,EF0 TORNADO WITH 70 MPH WINDS DOWNED TREES NEAR SAND HILL ROAD. (BMX)
2016-04-01 05:19:00+00:00,0519,UNK,1 SW BEAUREGARD,LEE,AL,32.53,-85.38,TORNADO START POINT. THE TORNADO BEGAN NEAR THE INTERSECTION OF SR 51 AND LEE RD 47 WHERE SEVERAL PINE TREES WERE SNAPPED AND UPROOTED IN A CONVERGENT PATTERN. ONE HALF (BMX)
2016-04-07 04:32:00+00:00,0432,UNK,5 SSW AUBURN,LEE,AL,32.53,-85.52,A BRIEF TORNADO TOUCHED DOWN WEST OF AL HWY 29 ON PERSIMMON DRIVE AND MOVED EAST ACROSS THE HIGHWAY TO AN APARTMENT COMPLEX. SEVERAL TREES WERE UPROOTED ALONG THE PATH (BMX)
2016-04-07 04:44:00+00:00,0444,UNK,5 SE AUBURN,LEE,AL,32.54,-85.42,A TORNADO TOUCHED DOWN JUST NORTH OF LEE RD 47/PIERCE CHAPEL ROAD CAUSING MINOR DAMAGE TO A GARAGE ROOF AND AN ENCLOSED PORCH AND UPROOTING A LARGE TREE. IT TRAVELED EA (BMX)
2017-01-22 20:00:00+00:00,2000,UNK,1 NE ROBERT G. PITTS AI,LEE,AL,32.63,-85.42,EF1 WITH WINDS OF 90-95MPH TOUCHED DOWN SOUTH OF PEPPERELL PKWY... MOVED NORTHEAST CROSSING US280 AND WAVERLY PKWY. PATH LENGH OF 3.08MI. MAX WIDTH OF 600YDS. TOR LIFTE (BMX)
2017-01-22 19:46:00+00:00,1946,UNK,4 ENE I-85 REST AREA,LEE,AL,32.53,-85.56,AN EF-0 TORNADO FORMED ALONG CR-14 SOUTH OF I-85 AND CONTINUED NORTHEAST TO ITS DISSIPATION POINT CROSSING SR-267. ALONG ITS PATH... A FEW SMALL PINE TREES WERE UPROOTE (BMX)
2017-09-01 00:42:00+00:00,0042,UNK,1 E NORTH BIBB,BIBB,AL,33.2,-87.13,NWS METEOROLOGISTS SURVEYED DAMAGE NEAR OLD WOODSTOCK ROAD AND DETERMINED THAT IT WAS CAUSED BY AN EF0 TORNADO WITH 75 MPH WINDS. (BMX)
2017-08-31 23:57:00+00:00,2357,UNK,1 SE HARMON,BIBB,AL,33.02,-87.26,NWS METEOROLOGISTS SURVEYED DAMAGE IN SOUTHWEST BIBB COUNTY AND FOUND THAT THE DAMAGE WAS CONSISTENT WITH AN EF1 TORNADO... WITH MAXIMUM SUSTAINED WINDS NEAR 90. NO INJ (BMX)
2017-09-01 00:11:00+00:00,0011,UNK,1 SE HARMON,BIBB,AL,33.02,-87.26,STORM CHASER TOOK VIDEO OF TORNADO CROSSING U.S. HIGHWAY 82 IN BIBB COUNTY NEAR EOLINE. TIME APPROXIMATE. (BMX)
2017-09-01 00:28:00+00:00,0028,UNK,3 WSW WEST BLOCTON,BIBB,AL,33.1,-87.17,NWS METEOROLOGISTS SURVEYED DAMAGE NEAR HOPEWELL CHURCH ROAD AND DETERMINED THAT IT WAS CAUSED BY AN EF1 TORNADO WITH 95 MPH WINDS. (BMX)
2016-03-02 00:45:00+00:00,0045,UNK,5 NE STEWARTVILLE,CLAY,AL,33.12,-86.17,NWS STORM SURVEY TORNADO END POINT. (BMX)
2015-01-04 12:28:00+00:00,1228,UNK,PINCKARD,DALE,AL,31.31,-85.55,DAMAGE TO STRUCTURES NEAR COUNTY ROAD 55 AND COUNTY ROAD 9. (TAE)
2017-04-27 16:24:00+00:00,1624,UNK,2 NE TROY UNIVERSITY,PIKE,AL,31.82,-85.93,NUMEROUS DAMAGE REPORTS ASSOCIATED WITH PERSISTENT DEBRIS SIGNATURE FROM KMXX. CORRECTED TIME. (BMX)
2017-04-27 15:24:00+00:00,1524,UNK,2 NE TROY UNIVERSITY,PIKE,AL,31.82,-85.93,NUMEROUS DAMAGE REPORTS ASSOCIATED WITH PERSISTENT DEBRIS SIGNATURE FROM KMXX. 1124 CDT. (BMX)
2015-08-07 03:38:00+00:00,0338,UNK,1 S TROY UNIVERSITY,PIKE,AL,31.78,-85.95,*** 4 INJ *** SIGNIFICANT DAMAGE TO THE WALMART AND HIBBETT SPORTS BUILDINGS IN TROY. FOUR MINOR INJURIES KNOWN AT THIS TIME. UPDATED FOR INJURIES. (BMX)
2017-01-21 14:55:00+00:00,1455,UNK,5 N GOSHEN,PIKE,AL,31.79,-86.13,AN EF1 TOUCHED DOWN IN WESTERN PIKE COUNTY AND TRAVELED EASTWARD. THE DAMAGE WENT ACROSS PIKE COUNTY AND MAY HAVE BEEN ONE THAN ONE TORNADO. FURTHER ASSESSMENT IS NEEDE (BMX)
2017-01-21 15:20:00+00:00,1520,UNK,2 SSE BANKS,PIKE,AL,31.79,-85.82,A WEAK TORNADO DAMAGE PATH WAS FOUND BY EMERGENCY MANAGEMENT STARTING JUST WEST OF THE BANKS FEED MILL ON ALABAMA HWY 93 AND GOING EAST TO COUNTY ROAD 4405. DEBRIS SIGN (BMX)
2016-02-16 00:20:00+00:00,0020,UNK,4 SSW BRUNDIDGE,PIKE,AL,31.66,-85.84,A 5 MILE LONG EF-1 TORNADO WITH WINDS OF UP TO 105 MPH TOUCHED DOWN JUST NORTHWEST OF AL HWY 125 APPROX 1.5 MILES WEST-SOUTHWEST OF US HWY 231. HUNDREDS OF TREES WERE S (BMX)
2016-02-24 04:38:00+00:00,0438,UNK,2 W HEADLAND,HENRY,AL,31.35,-85.38,THIS TORNADO WAS THE FIFTH TORNADO TO BE SPAWNED BY THE SAME THUNDERSTORM. THE TORNADO INITIALLY DEVELOPED NEAR CR-83 AND THE CITY LIMITS OF HEADLAND WHERE LARGE TREES (TAE)
2017-04-05 15:50:00+00:00,1550,UNK,3 N COATES,HENRY,AL,31.76,-85.16,PRELIMINARY DATA FROM STORM SURVEY SUGGESTS EF-2 TORNADO TOUCHDOWN NEAR THE HENRY/BARBOUR COUNTY LINE BEFORE MOVING INTO QUITMAN COUNTY. SURVEYS ARE ONGOING ALONG THE R (TAE)
2016-02-24 04:49:00+00:00,0449,UNK,5 NE HEADLAND,HENRY,AL,31.41,-85.28,DAMAGE TO 5 RESIDENCES AND NUMEROUS TREES AND POWER LINES DOWN NORTHEAST OF HEADLAND. DEBRIS SIGNATURE ON RADAR AT THE TIME. (TAE)
2015-04-19 12:46:00+00:00,1246,UNK,5 SW ABBEVILLE,HENRY,AL,31.51,-85.31,PRELIMINARY DATA SUPPORTS AT LEAST AN EF1 TORNADO WITH DAMAGE PATH FROM 31.5135...-85.3112 AT 846 AM CDT TO 31.5302...-85.2815 AT 853 AM CDT. DAMAGE TO TREES WITH FIVE RAIL (
2017-01-22 19:00:00+00:00,1900,UNK,1 SW GRANDBERRY CROSSRO,HENRY,AL,31.34,-85.25,MULTIPLE STRUCTURES DAMAGED INCLUDING A MOBILE HOME AND A BARN. RATED AS AN EF1 TORNADO AFTER STORM SURVEY (TAE)
2016-02-24 05:02:00+00:00,0502,UNK,WSW HARDWICKBURG,HENRY,AL,31.5,-85.16,A SHORT TORNADO PATH WAS OBSERVED ALONG CR-65 JUST TO THE EAST OF ITS INTERSECTION WITH HIGHWAY 95. MANY LARGE TREES WERE SNAPPED OR UPROOTED ALONG THIS SHORT PATH. (TAE)
2016-02-24 04:54:00+00:00,0454,UNK,2 NE BALKUM,HENRY,AL,31.44,-85.21,A SHORT TORNADO TRACK WAS DETERMINED ALONG CR-53 JUST NORTH OF ITS INTERSECTION WITH CR-26. THIS WAS A CONCENTRATED AREA OF TREE DAMAGE. (TAE)
2015-04-19 13:46:00+00:00,1346,UNK,5 SW ABBEVILLE,HENRY,AL,31.51,-85.31,PRELIMINARY DATA SUPPORTS AT LEAST AN EF1 TORNADO WITH DAMAGE PATH FROM 31.5135 -85.3112 AT 846 AM CDT TO 31.5302 -85.2815 AT 853 AM CDT. DAMAGE TO TREES WITH FIVE RAIL (TAE)
2015-04-19 13:51:00+00:00,1351,UNK,3 WSW ABBEVILLE,HENRY,AL,31.55,-85.29,STATE TROOPER REPORTED TRAIN CARS OVERTURNED NEAR HIGHWAY 431...MILE MARKER 38. (TAE)
2017-08-31 20:58:00+00:00,2058,UNK,1 NE KENNEDY,LAMAR,AL,33.59,-87.98,TREE AND ROOF DAMAGE ALONG COUNTY ROAD 2 AND TREES DOWN ALONG HIGHWAY 17. TIME APPROXIMATE. (BMX)
2016-11-30 05:40:00+00:00,0540,UNK,3 WSW LAMAR COUNTY AIRP,LAMAR,AL,33.83,-88.16,AN EF1 TORNADO WITH PEAK WINDS OF 105MPH TOUCHED DOWN WSW OF THE LAMAR COUNTY AIRPORT. PATH LENGTH OF 9.69 MI. . THE DURATION OF THE TORNADO EVENT WAS 13 MINUTES. (BMX)
2016-11-30 05:47:00+00:00,0547,UNK,3 WSW LAMAR COUNTY AIRP,LAMAR,AL,33.83,-88.16,TRAINED SPOTTER OBSERVED TORNADO GO ACROSS THE ROADWAY IN FRONT OF HIM ON BUCK JACKSON ROAD AND MORRIS ROAD. NUMEROUS TREES DOWN ON THE ROADWAY. (BMX)
2016-02-03 03:00:00+00:00,0300,UNK,1 S BEAVERTON,LAMAR,AL,33.92,-88.02,TORNADO CONFIRMED BY EMA... SEVERAL TREES ARE DOWN AND BLOCKING THE TAYLOR SPRINGS... TURKEY BRANCH AND PINEY GROVE ROADS. (BMX)
2016-02-03 02:15:00+00:00,0215,UNK,1 S BEAVERTON,LAMAR,AL,33.92,-88.02,TORNADO CONFIRMED BY EMA... SEVERAL TREES ARE DOWN AND BLOCKING THE TAYLOR SPRINGS... TURKEY BRANCH AND PINEY GROVE ROADS. (BMX)
2016-02-03 02:10:00+00:00,0210,UNK,4 S BEAVERTON,LAMAR,AL,33.88,-88.02,TORNADO TOUCHED DOWN ALONG CHASTAIN RD AND MOVED NORTHEAST PRODUCING MAJOR ROOF DAMAGE TO ONE RESIDENCE NEAR THE INTERSECTION OF POND RD AND GARRISON RD. IT CONTINUED N (BMX)
2017-01-21 14:48:00+00:00,1448,UNK,3 N SOCIETY HILL,MACON,AL,32.47,-85.46,A TORNADO PRODUCED TREE AND MINOR ROOF DAMAGE NEAR THE LEE AND MACON COUNTY LINE. (BMX)
2016-04-01 02:42:00+00:00,0242,UNK,2 SSW LOCUST FORK,BLOUNT,AL,33.88,-86.62,TORNADO START POINT. TORNADO BRIEFLY TOUCHED DOWN NEAR THE INTERSECTION OF SPUNKY HOLLOW ROAD AND SUNRISE LANE. A METAL STORAGE BARN WITH WOOD FRAMING WAS HEAVILY DAMAG (BMX)
2016-11-30 06:26:00+00:00,0626,UNK,4 NNE IDER,DEKALB,AL,34.76,-85.65,ROOF TORN OFF OF A HOME ALONG COUNTY ROAD 159 NORTH OF IDER. (HUN)
2016-11-30 07:10:00+00:00,0710,UNK,3 NNW IDER,DEKALB,AL,34.74,-85.69,*** 7 INJ *** AN EF-3 TORNADO WITH PEAK WIND SPEED OF 145 MPH... PATH LENGTH OF 7.5 MILES AND PATH WIDTH OF 156 YARDS. THIS TRACK WILL BE ADJUSTED AFTER ADDITIONAL SURV (HUN)
2016-11-30 06:10:00+00:00,0610,UNK,2 NNW IDER,DEKALB,AL,34.73,-85.69,MULTIPLE TREES AND POWERLINES REPORTED DOWN. MULTIPLE INJURIES ALSO REPORTED. (HUN)
2017-01-21 13:55:00+00:00,1355,UNK,1 SW WETUMPKA,ELMORE,AL,32.53,-86.22,A TORNADO MOVED THROUGH WETUMPKA AND PRODUCED TREE AND STRUCTURE DAMAGE. (BMX)
2017-01-21 13:55:00+00:00,1355,UNK,2 SSE BLUE RIDGE,ELMORE,AL,32.47,-86.17,AN EF1 TORNADO WITH WINDS OF 90 MPH TOUCHED DOWN BRIEFLY JUST SOUTH OF WILLOW SPRINGS RD AND MOVED NORTH NORTHEAST CAUSING TREE DAMAGE. PATH LENGTH 0.68 MI. PATH WIDTH (BMX)
2017-01-03 01:35:00+00:00,0135,UNK,4 SSW TAYLOR,GENEVA,AL,31.11,-85.51,TORNADO TOUCHED DOWN IN GENEVA COUNTY NEAR HOUSTON COUNTY BORDER ALONG REHOBETH ROAD BEFORE LIFTING AFTER CROSSING US 231 EAST OF THE NATIONAL PEANUT FESTIVAL GROUNDS. (TAE)
2015-01-03 23:19:00+00:00,2319,UNK,1 SSE JENA,GREENE,AL,33.12,-87.84,NATIONAL WEATHER SERVICE METEOROLOGISTS SURVEYED DAMAGE IN GREENE AND TUSCALOOSA COUNTIES AND CONFIRMED A WEAK TORNADO. THE TORNADO TOUCHED DOWN NEAR THE GREENE-TUSCALO (BMX)
2015-01-03 22:55:00+00:00,2255,UNK,3 N NEW WEST GREENE,GREENE,AL,32.96,-88.13,A TORNADO MOVED PARALLEL TO COUTY ROAD 117 IN NORTHERN GREENE COUNTY. THE TORNADO WAS RATED AN EF1 AS DOZENS OF HARDWOOD AND SOFTWOOD TREES WERE SNAPPED OFF OR WERE UPR (BMX)
2016-02-24 00:03:00+00:00,0003,UNK,5 WSW HACKLEBURG,MARION,AL,34.24,-87.92,DUAL-POL TORNADO DEBRIS SIGNATURE DETECTED FROM KGWX NEXRAD. (BMX)
2015-01-03 23:23:00+00:00,2323,UNK,3 NNE HAMILTON,MARION,AL,34.18,-87.95,NUMEROUS TREES DOWN AND MULTIPLE STRUCTURES DAMAGED IN THE AREA OF HIGHWAY 43 NORTH AND BEECHER STREET WITHIN THE CITY LIMITS OF HAMILTON. THE TORNADO WAS BRIEF WITH A (BMX)
2016-11-30 01:29:00+00:00,0129,UNK,1 WSW TWIN,MARION,AL,34.0,-87.88,AN EF0 TOR WITH PEAK WINDS OF 75MPH TOUCHED DOWN NE OF GU-WIN. PATH LENGTH OF 10.6 MI. PATH WIDTH OF 150 YDS. THE DURATION OF THE TORNADO EVENT WAS 14 MINUTES. (BMX)
2016-11-30 06:20:00+00:00,0620,UNK,2 NNW TUCKER,MARION,AL,33.99,-87.79,MARION COUNTY SHERIFF'S DEPUTY CONFIRMS TORNADO CROSSED I-22 AT MILE MARKER 29. (BMX)
2016-11-30 06:20:00+00:00,0620,UNK,2 SE PINEY GROVE,MARION,AL,34.07,-87.71,ROOFS TAKEN FROM HOUSES ON CAGLE ROAD NORTHEAST OF BRILLIANT. SIGNIFICANT DAMAGE TO A MOBILE HOME AS WELL. TIME BASED ON RADAR... VIA SOCIAL MEDIA. (BMX)
2016-11-30 06:02:00+00:00,0602,UNK,3 SSW GUIN,MARION,AL,33.93,-87.92,POWER LINES AND MULTIPLE TREES DOWN ON CO. RD 88 IN GUIN. (BMX)
2016-11-30 06:25:00+00:00,0625,UNK,2 ENE GU-WIN,MARION,AL,33.97,-87.84,NUMEROUS TREES AND POWERLINES DOWN ON ALABAMA HWY 253. (BMX)
2017-10-23 07:28:00+00:00,0728,UNK,2 SSW TRINITY,MORGAN,AL,34.57,-87.11,EF-1 TORNADO WITH PEAK WINDS OF 105 MPH... PATH LENGTH OF 2.4 MILES... AND PATH WIDTH OF 75 YARDS. (HUN)
2015-07-14 23:59:00+00:00,2359,UNK,4 ESE FALKVILLE,MORGAN,AL,34.35,-86.84,EF1 TORNADO WITH ESTIMATED PEAK WID OF 95 MPH. PATH LENGTH OF 4.9 MILES AND PATH WIDTH OF UP TO 300 YARDS. (HUN)
2016-04-01 02:11:00+00:00,0211,UNK,3 NE HARTSELLE,MORGAN,AL,34.48,-86.9,DEBRIS NEAR MM330 ON I-65. POWER FLASHES AND TORNADO ON THE GROUND. (HUN)
2016-04-01 02:00:00+00:00,0200,UNK,5 NNE HARTSELLE,MORGAN,AL,34.51,-86.9,DEBRIS WAS REPORTED ALONG PORTIONS OF INTERSTATE 65 NEAR MILE MARKER 330 BETWEEN HARTSELLE AND PRICEVILLE. (HUN)
2016-11-30 05:22:00+00:00,0522,UNK,2 SW MORGAN CITY,MORGAN,AL,34.45,-86.59,TREES REPORTED SNAPPED NEAR THE TOP ALONG PINE RIDGE ROAD IN MORGAN CITY. (HUN)
2015-07-14 23:48:00+00:00,2348,UNK,4 NNE HARTSELLE,MORGAN,AL,34.5,-86.9,EF0 TORNADO WITH ESTIMATED PEAK WIND OF 80 MPH. PATH LENGTH OF 0.76 MILES AND PATH WIDTH UP TO 100 YARDS. (HUN)
2016-11-29 17:22:00+00:00,1722,UNK,2 SW MORGAN CITY,MORGAN,AL,34.45,-86.59,TREES REPORTED SNAPPED NEAR THE TOP ALONG PINE RIDGE ROAD IN MORGAN CITY. (HUN)
2016-02-24 10:04:00+00:00,1004,UNK,4 WSW COLUMBIANA,SHELBY,AL,33.16,-86.67,A BRIEF WEAK TORNADO TOUCHED DOWN ALONG CR 97 AND MOVED EAST-NORTHEAST THROUGH A LARGELY RURAL AND WOODED AREA. IT LIFTED ALONG PEACEFUL VALLEY RD. THE MAJORITY OF THE (BMX)
2017-06-22 19:42:00+00:00,1942,UNK,3 NE MARVEL,SHELBY,AL,33.18,-86.97,A BRIEF EF-0 TORNADO TOUCHED DOWN ALONG A GRAVEL ROAD EXTENDING NORTH FROM COUNTY ROAD 10. SEVERAL TREES WERE UPROOTED... WITH A FEW SNAPPED AS WELL. THIS DAMAGE WAS AL (BMX)
2015-01-03 22:36:00+00:00,2236,UNK,5 N EMELLE,SUMTER,AL,32.81,-88.31,HUNDREDS OF TREES DOWN ON HIGHWAY 116 NEAR HIGHWAY 17 AND OLD BODKA ROAD. (BMX)
2015-01-03 22:06:00+00:00,2206,UNK,1 SSE CUBA,SUMTER,AL,32.43,-88.37,AN EF0 TORNADO WITH WINDS OF 80MPH TOUCHED DOWN EAST OF CUBA AND TRACKED 0.67 MILES TO THE NORTHEAST ALONG THE NORFOLK SOUTHERN RR CAUSING MINOR TREE DAMAGE AND ROOF DA (BMX)
2017-10-07 23:34:00+00:00,2334,UNK,2 SSW ORANGE BEACH,BALDWIN,AL,30.28,-87.59,WATERSPOUT REPORTED TO HAVE MOVED ONTO ORANGE BEACH. (MOB)
2017-10-22 19:59:00+00:00,1959,UNK,2 ENE OAK,BALDWIN,AL,30.33,-87.68,SPOTTERS AND 911 CALL CENTER CONFIRMED A TORNADO NEAR THE FOLEY BEACH EXPRESSWAY AND COUNTY ROAD 8. (MOB)
2017-10-07 18:58:00+00:00,1858,UNK,1 E GULF SHORES,BALDWIN,AL,30.25,-87.69,VIDEO FROM SOCIAL MEDIA OF A WATERSPOUT MOVING ONTO THE BEACH NEAR GULF SHORES. NO REPORTS OF DAMAGE AT THIS TIME. (MOB)
2017-01-21 15:30:00+00:00,1530,UNK,6 NNW CLIO,BARBOUR,AL,31.79,-85.66,A TORNADO OCCURRED IN PIKE COUNTY AND THE DAMAGE CONTINUED INTO BARBOUR COUNTY. THE TORNADO MOVED EASTWARD AND ENDED JUST EAST OF LOUISVILLE. (BMX)
2015-12-24 10:29:00+00:00,1029,UNK,1 SSE BOOT HILL,BARBOUR,AL,31.86,-85.63,TORNADO DEBRIS SIGNATURE CONFIRMED BY DUAL-POL RADAR DATA. (BMX)
2017-04-27 22:59:00+00:00,2259,UNK,1 SSW CLAYTON,BARBOUR,AL,31.87,-85.46,*** 3 INJ *** TORNADO MOVED NE THROUGH DOWNTOWN CLAYTON. DAMAGE CONSISTED MAINLY OF SNAPPED/UPROOTED TREES... WITH SOME STRUCTURAL DAMAGE PRIMARILY DUE TO FALLEN TREES. (BMX)
2017-04-05 14:49:00+00:00,1449,UNK,5 ENE RICHARDS CROSSROA,BARBOUR,AL,31.76,-85.18,10:49 AM CDT. TAE SURVEYED EF1 DAMAGE IN SOUTHERN BARBOUR COUNTY. (BMX)
2015-12-24 09:45:00+00:00,0945,UNK,3 SSE SPRING HILL,BARBOUR,AL,32.04,-85.32,TORNADO DEBRIS SIGNATURE CONFIRMED BY DUAL-POL RADAR DATA. (BMX)
2017-04-27 21:17:00+00:00,2117,UNK,4 SSE MOUNT ANDREW,BARBOUR,AL,31.92,-85.51,TORNADO CAPTURED ON VIDEO NORTH OF AL 239 BEHIND VENTRESS CORRECTIONAL FACILITY. (BMX)
2016-04-07 05:16:00+00:00,0516,UNK,N BOOT HILL,BARBOUR,AL,31.88,-85.64,A TORNADO TOUCHED DOWN IN RURAL BARBOUR COUNTY WEST OF CLAYTON...NORTH OF THE CR 9 AND CR 44 INTERSECTION. IT CONTINUED EASTWARD FOR NEARLY 5.4 MILES AND SNAPPED OR UPR (BMX)
2017-01-02 22:24:00+00:00,2224,UNK,2 WNW BEANS CROSSROADS,BULLOCK,AL,32.03,-85.87,THE TORNADO TOUCHED DOWN ALONG CR 13 AND TRAVELED NE CROSSING CR 14 & CR 15 BEFORE DISSIPATING JUST N OF EAST CREEK. DAMAGED CONSISTED OF NUMEROUS TREES SNAPPED/UPROOTE (BMX)
2015-04-19 12:19:00+00:00,1219,UNK,5 ENE UNION SPRINGS,BULLOCK,AL,32.16,-85.63,THE TORNADO TOUCHED DOWN IN A PECAN GROVE WEST OF PEACHBURG PLANTATION...UPROOTING A MATURE HEALTHY PECAN TREE. IT TRAVELLED NORTHEAST PARALLELING PEACHBURG ROAD...SNAP (BMX)
2016-04-07 04:54:00+00:00,0454,UNK,4 NW MIDWAY,BULLOCK,AL,32.13,-85.57,A TORNADO TOUCHED DOWN JUST WEST OF BULLOCK COUNTY RD 35 AND TRAVELED EAST FOR 7.74 MILES BEFORE LIFTING JUST WEST OF THE BARBOUR COUNTY LINE...WITH A MAXIMUM WIDTH OF (BMX)
2017-01-22 19:06:00+00:00,1906,UNK,1 NW SHOPTON,BULLOCK,AL,32.13,-85.96,A TORNADO TOUCHED DOWN NEAR SHOPTON. MOST OF THE DAMAGE WAS TO TREES... BUT AT LEAST ONE HOME SUFFERED DAMAGE. (BMX)
2016-04-07 04:18:00+00:00,0418,UNK,6 WSW HARDAWAY,BULLOCK,AL,32.26,-85.94,A TORNADO TOUCHED DOWN NEAR THE MITCHELL COMMUNITY NEAR ALABAMA HWY 110. ESTIMATED PEAK WINDS OF 75 MPH WERE ENCOUNTERED ALONG THE 3 MILE LONG 300 YARD WIDE PATH...SNAP (BMX)
2017-10-08 01:20:00+00:00,0120,UNK,3 NNE PLECHER,CHILTON,AL,32.74,-86.77,DAMAGE WAS SPORADIC ALONG ITS SHORT PATH... AND PRIMARILY CONSISTED OF TWIGS AND BRANCHES OF VARIOUS SIZE THAT WERE BROKEN OFF OF TREES. (BMX)
2017-10-08 01:47:00+00:00,0147,UNK,1 ENE CAMPBELL,CHILTON,AL,32.9,-86.83,BEGAN IN A WOODED AREA JUST WEST OF THE INTERSECTION OF CR-36 AND AL-191... WHERE IT SNAPPED SEVERAL BRANCHES OFF OF TREES. FROM THERE... THE TORNADO MOVED NORTH-NORTHW (BMX)
2017-01-21 11:14:00+00:00,1114,UNK,4 ESE TOXEY,CHOCTAW,AL,31.89,-88.25,*** 4 INJ *** LIKELY TORNADO PRODUCED MAJOR TREE AND POWER LINE DAMAGE ACROSS CHAPEL HILL ROAD AND PLEASANT HILL ROAD AREAS. DAMAGE TO 20-25 RESIDENCES SOME WITH MAJOR (MOB)
2015-07-14 23:18:00+00:00,2318,UNK,2 NE LA GRANGE,COLBERT,AL,34.6,-87.53,EF-0 TORNADO WITH PEAK WIND SPEEDS OF 85 MPH. PATH LENGTH WAS 2.66 MILES AND PATH WIDTH OF UP TO 50 YARDS. (HUN)
2016-11-30 01:15:00+00:00,0115,UNK,WSW CROOKED OAK,COLBERT,AL,34.58,-87.81,TREES DOWN ALONG FRANKFORT AND WAGNON MOUNTAIN ROADS. RELAYED BY COLBERT EOC. (HUN)
2016-11-30 01:30:00+00:00,0130,UNK,5 WNW LITTLEVILLE,COLBERT,AL,34.62,-87.75,NUMEROUS TREES AND POWERLINES DOWN ALONG UNDERWOOD MOUNTAIN ROAD IN TUSCUMBIA. HOME DAMAGED AS WELL WITH TWO INJURIES. POSSIBLE TORNADO. RELAYED BY COLBERT EOC. (HUN)
2015-07-14 23:00:00+00:00,2300,UNK,3 SW FLORENCE,COLBERT,AL,34.77,-87.71,EF1 TORNADO WITH ESTIMATED PEAK WIND OF 95 MPH. PATH LENGTH OF 9.11 MILES AND PATH WIDTH UP TO 150 YARDS. (HUN)
2017-11-18 23:01:00+00:00,2301,UNK,4 W LITTLEVILLE,COLBERT,AL,34.59,-87.74,EF-1 TORNADO WITH PEAK WIND OF 95 MPH... PATH LENGTH OF 1.8 MILES AND PATH WIDTH OF 200 YARDS. (HUN)
2016-02-15 22:33:00+00:00,2233,UNK,2 SE JOHNSONVILLE,CONECUH,AL,31.27,-86.85,STORM CHASER REPORTS THAT A TORNADO CROSSED CR-6 AND DESTROYED THE JOHNSONVILLE VFD. A HOME SUSTAINED ROOF DAMAGE WITH NUMEROUS TREES AND POWER LINES SNAPPED. (MOB)
2017-09-01 01:58:00+00:00,0158,UNK,2 SSE HOLLY POND,CULLMAN,AL,34.15,-86.61,A TORNADO DEVELOPED JUST SE OF HOLLY POND... AL... CONTINUED TRACKING NORTHEAST EAST OF BAILEYTON AND THEN MOVIED JUST WEST OF JOPPA BEFORE DISSIPATING WEST OF ARAB IN (HUN)
2017-04-30 19:12:00+00:00,1912,UNK,1 NW SOUTH VINEMONT,CULLMAN,AL,34.24,-86.87,NWS SURVEY TEAM FOUND EVIDENCE OF AN EF-0 TORNADO IN THE NORTH CENTRAL CULLMAN COUNTY AREA. TIMES ESTIMATED BY RADAR. (HUN)
2017-04-22 22:40:00+00:00,2240,UNK,3 NW JONES CHAPEL,CULLMAN,AL,34.24,-87.08,EF-1 WITH MAXIMUM WIND SPEED OF 100 MPH... PATH LENGTH OF 4.39 MILES... AND MAXIMUM PATH WIDTH OF 200 YARDS. (HUN)
2016-04-01 00:28:00+00:00,0028,UNK,5 SSE GLEN ALLEN,FAYETTE,AL,33.86,-87.7,A TORNADO TOUCHED DOWN NEAR THE INTERSECTION OF CR 52 AND CR 18. IT TRACKED NORTHEAST AND UPROOTED AND SNAPPED NUMEROUS TREES. IT DISSIPATED NEAR CASTLEBERRY ROAD. MAX. (BMX)
2016-02-02 23:36:00+00:00,2336,UNK,1 NW ASHCRAFT CORNER,FAYETTE,AL,33.54,-87.92,TORNADO TOUCHED DOWN ALONG ASHCRAFT CORNER CUTOFF AND TRACKED NORTHEAST PARALELLING PORTIONS OF AL HWY 159 AND OWENS RD BEFORE LIFTING ALONG CR 4. DAMAGE CONSISTED MOST (BMX)
2017-08-31 21:24:00+00:00,2124,UNK,4 NNW BEVILL STATE COLL,FAYETTE,AL,33.78,-87.84,STORM SPOTTER REPORTS POSSIBLE TORNADO WITH FLYING DEBRIS ALONG EL BETHEL ROAD. TIME APPROXIMATE. (BMX)
2016-11-30 02:04:00+00:00,0204,UNK,3 SW FOWLER'S CROSSROAD,FAYETTE,AL,33.77,-87.7,AN EF0 TOR WITH PEAK WINDS OF 65 MPH TOUCHED DOWN BRIEFLY SW OF FOWLERS CROSSROADS. PATH LENGTH OF 0.3 MI. PATH WIDTH OF 50 YDS. THE DURATION OF THE TORNADO EVENT WAS 1 (BMX)
2016-04-01 01:09:00+00:00,0109,UNK,2 NNE BOLEY SPRINGS,FAYETTE,AL,33.66,-87.5,TORNADO END POINT. ESTIMATED PEAK WIND 70 MPH. PATH LENGTH 1.88 MILES. MAXIMUM PATH WIDTH 400 YARDS. (BMX)
2016-04-01 00:35:00+00:00,0035,UNK,3 SW ELDRIDGE,FAYETTE,AL,33.89,-87.65,TORNADO END POINT. ESTIMATED PEAK WIND 88 MPH. PATH LENGTH 3.7 MILES. MAXIMUM PATH WIDTH 425 YARDS. (BMX)
2016-04-01 00:13:00+00:00,0013,UNK,4 ENE BLUFF,FAYETTE,AL,33.83,-87.84,TORNADO END POINT. ESTIMATED PEAK WIND 105 MPH. PATH LENGTH 3.75 MILES. MAXIMUM PATH WIDTH 630 YARDS. (BMX)
2016-04-01 01:04:00+00:00,0104,UNK,1 WNW BOLEY SPRINGS,FAYETTE,AL,33.65,-87.53,A SHORT-LIVED TORNADO TOUCHED DOWN NEAR CR 46 AT THE TOWN OF BOLEY SPRINGS. THE WEAK TORNADO TRACKED NORTHEAST AND DISSIPATED NEAR COUNTY ROAD 83. THE TORNADO UPROOTED (BMX)
2017-08-31 21:12:00+00:00,2112,UNK,3 W FAYETTE,FAYETTE,AL,33.69,-87.88,POSSIBLE TORNADO REPORTED NEAR INTERSECTION OF ALABAMA HIGHWAY 96 AND COUNTY ROAD 21. AMATEUR RADIO OPERATOR REPORTS REPEATER OUTAGE DUE TO POSSIBLE TORNADO. TIME ESTIM (BMX)
2016-04-01 00:03:00+00:00,0003,UNK,4 SSE BLUFF,FAYETTE,AL,33.78,-87.87,A TORNADO TOUCHED DOWN NEAR THE INTERSECTION OF CR 51 AND TURNER ROAD. IT TRACKED NE ALONG CR 51 SNAPPING AND UPROTTING NUMEROUS TREES AND ALSO DAMAGING SEVERAL WOOD FR (BMX)
2016-02-24 04:33:00+00:00,0433,UNK,3 NW DOTHAN,HOUSTON,AL,31.26,-85.43,NUMEROUS REPORTS OF DAMAGE ON THE NORTHWEST SIDE OF DOTHAN INCLUDING MANY TREES DAMAGED AND STRUCTURAL DAMAGE AS WELL. IN THE VICINITY OF THE WALMART. THERE WAS A DEBRI (TAE)
2017-01-03 01:40:00+00:00,0140,UNK,REHOBETH,HOUSTON,AL,31.13,-85.44,*** 4 FATAL *** SIGNIFICANT DAMAGE IN THE REHOBETH AREA. GOVERNOR TWEETED 4 FATALITIES (TAE)
2016-02-24 04:15:00+00:00,0415,UNK,NW BAILEY CROSSROAD,HOUSTON,AL,31.19,-85.61,THIS WAS A WEAK TORNADO JUST NORTH OF THE HOUSTON-GENEVA COUNTY BORDER. IT REMOVED METAL ROOFING FROM SEVERAL BARNS AND PORCHES. MULTIPLE TREES WERE BLOWN DOWN. PATH LE (TAE)
2016-02-24 04:24:00+00:00,0424,UNK,4 SSE PINCKARD,HOUSTON,AL,31.25,-85.53,THIS TORNADO...RATED EF1...INITIALLY DEVELOPED IN HOUSTON COUNTY...BRIEFLY CROSSED INTO DALE COUNTY...BEFORE CROSSING BACK INTO HOUSTON COUNTY AND CAUSING DAMAGE IN THE (TAE)
2016-02-24 04:38:00+00:00,0438,UNK,KINSEY,HOUSTON,AL,31.3,-85.34,KINSEY FIRE DEPARTMENT CALLED OUT FOR DAMAGE...RELAYED BY THE MEDIA. THERE WAS ALSO A DEBRIS SIGNATURE ON EOX RADAR AT THE TIME. (TAE)
2017-01-03 01:46:00+00:00,0146,UNK,3 SSE DOTHAN,HOUSTON,AL,31.18,-85.37,TORNADO TOUCHED DOWN ALONG E. COTTONWOOD ROAD SE OF DOTHAN AL. THE TORNADO TRAVELED EAST FOR APPROXIMATELY 2.6 MILES ALONG MCCALLISTER ROAD BEFORE LIFTING NEAR ROSEWOOD (TAE)
2016-11-30 06:03:00+00:00,0603,UNK,ROSALIE,JACKSON,AL,34.7,-85.77,NUMBEROUS CHICKEN HOUSES LEVELED TO THE GROUND. GAS STATION HEAVILY DAMAGED. (HUN)
2016-11-30 06:00:00+00:00,0600,UNK,5 NNW HENAGAR,JACKSON,AL,34.7,-85.76,*** 2 FATAL *** TWO COMFIRMED FATALITIES ALONG COUNTY ROAD 659 AND HIGHWAY 71 IN ROSALIE. MACKLIN BAPTIST CHURCH AND ROSALIE PLAZA HAVE ALSO BEEN COMPLETELY DESTROYED. (HUN)
2017-04-22 22:40:00+00:00,2240,UNK,3 SW SKYLINE,JACKSON,AL,34.79,-86.15,EF-0 WITH MAXIMUM WIND SPEED OF 85 MPH... PATH LENGTH OF 2.19 MILES... AND MAXIMUM PATH WIDTH OF 200 YARDS. (HUN)
2017-10-07 23:55:00+00:00,2355,UNK,3 SSW HAYNEVILLE,LOWNDES,AL,32.14,-86.59,BEGAN NEAR A CHICKEN FARM ALONG CR-33 AND MOVED NORTHWEST CROSSING ALABAMA HIGHWAY 21 WHERE TRESS WERE SNAPPED AND UPROOTED. THE TORNADO CONTINUED NORTHWEST CROSSING FO (BMX)
2017-10-08 00:31:00+00:00,0031,UNK,2 S AUTAUGAVILLE,LOWNDES,AL,32.4,-86.65,BEGAN JUST NORTH OF THE ALABAMA RIVER IN PRIVATE FARMLAND AND MOVED NORTHWEST ACROSS CR-19 WHERE IT UPROOTED TREES AND SNAPPED A FEW TREE TRUNKS. THE TORNADO CONTINUED (BMX)
2016-11-30 03:30:00+00:00,0330,UNK,1 NNW BROWNSBORO,MADISON,AL,34.76,-86.46,SEVERAL HOMES DAMAGED NORTH OF CENTRAL ELEMENTARY SCHOOL ALONG RYLAND PIKE. RELAYED VIA HAM RADIO OPERATORS. (HUN)
2015-07-14 23:18:00+00:00,2318,UNK,2 NNW TRIANA,MADISON,AL,34.61,-86.75,EF-0 TORNADO WITH PEAK WIND SPEEDS OF 85 MPH. PATH LENGTH OF 0.91 MILES AND PATH WIDTH OF UP TO 75 YARDS. (HUN)
2016-11-30 03:40:00+00:00,0340,UNK,4 ENE MOORES MILL,MADISON,AL,34.87,-86.46,TORNADO SPOTTED ON THE GROUND FROM BUCKHORN HIGH SCHOOL LOOKING NORTHEAST. RELAYED BY HAM RADIO OPERATORS. (HUN)
2016-11-30 11:10:00+00:00,1110,UNK,5 WSW FAUNSDALE,MARENGO,AL,32.42,-87.67,AN EF1 TOR WITH PEAK WINDS OF 90MPH TOUCHED DOWN WSW OF FAUNSDALE AND MOVED ACROSS FAR SE HALE CO. PATH LENGTH OF 13 MI. PATH WIDTH OF 250 YDS. THE DURATION OF THE TORN (BMX)
2017-01-21 11:55:00+00:00,1155,UNK,3 N DIXONS MILL,MARENGO,AL,32.1,-87.78,EF1 TORNADO WITH 90 MPH WINDS DOWNED TREES AND DAMAGED OUTBUILDINGS NEAR US HIGHWAY 43. (BMX)
2017-01-21 11:29:00+00:00,1129,UNK,5 WSW PUTNAM,MARENGO,AL,32.0,-88.11,A TORNADO CONTINUED FROM CHOCTAW COUNTY INTO SOUTHEASTERN MARENGO COUNTY. THE TORNADO CROSSED THE RIVER AND ENDED NEAR PUTNAM. THE DAMAGE WAS CONSISTENT WITH EF1 WIND D (BMX)
2017-08-31 20:40:00+00:00,2040,UNK,1 W REFORM,PICKENS,AL,33.38,-88.03,*** 6 INJ *** NWS METEOROLOGISTS SURVEYED DAMAGE IN NORTHERN PICKENS COUNTY AND FOUND THAT THE DAMAGE WAS CONSISTENT WITH AN EF2 TORNADO... WITH MAXIMUM SUSTAINED WINDS (BMX)
2016-11-30 01:15:00+00:00,0115,UNK,5 NE ETHELSVILLE,PICKENS,AL,33.46,-88.15,AN EF1 WITH PEAK WINDS OF 95 MPH TOUCHED DOWN NE OF ETHELSVILLE. PATH WIDTH OF 600 YDS AND PATH LENGTH OF 5.3 MILES. THE DURATION OF THE TORNADO EVENT WAS 10 MINUTES. (BMX)
2016-02-02 23:51:00+00:00,2351,UNK,3 N MCMULLEN,PICKENS,AL,33.19,-88.18,LARGE TORNADO SPOTTED IN MCMULLEN... AL AND ALICEVILLE... AL SEVERAL HOMES WERE DAMAGED WITH MINOR INJURIES ON MLK ROAD. TREES AND POWER LINES DOWN ARE ALSO REPORTED ALONG (B
2016-02-02 22:31:00+00:00,2231,UNK,5 NW PANOLA,PICKENS,AL,33.0,-88.34,*** 1 INJ *** A LARGE TORNADO MOVED THROUGH PICKENS COUNTY WITH DAMAGE IN MCMULLEN AND NEAR ALICEVILLE. SEVERAL HOMES WERE DAMAGED AND THE FEDERAL PRISON WAS DAMAGED. O (BMX)
2016-02-03 05:07:00+00:00,0507,UNK,6 E ETHELSVILLE,PICKENS,AL,33.42,-88.12,TORNADO CAUSED MINOR TREE DAMAGE ALONG PRICE RD JUST BEFORE IT LIFTED. (BMX)
2016-02-23 22:20:00+00:00,2220,UNK,1 ESE REFORM,PICKENS,AL,33.37,-88.0,POSSIBLE ROOF DAMAGE. RADAR TDS SIGNATURE AT 425 PM CDT. TIME ESTIMATED BY RADAR. (BMX)
2016-02-02 22:51:00+00:00,2251,UNK,3 N MCMULLEN,PICKENS,AL,33.19,-88.18,LARGE TORNADO SPOTTED IN MCMULLEN AND ALICEVILLE. SEVERAL HOMES WERE DAMAGED WITH MINOR INJURIES ON MLK ROAD. TREES AND POWER LINES DOWN ARE ALSO REPORTED ALONG WITH SM (BMX)
2016-02-02 23:14:00+00:00,2314,UNK,3 N MCMULLEN,PICKENS,AL,33.19,-88.18,LARGE TORNADO SPOTTED IN MCMULLEN... AL AND ALICEVILLE... AL SEVERAL HOMES WERE DAMAGED WITH MINOR INJURIES ON MLK ROAD. TREES AND POWER LINES DOWN ARE ALSO REPORTED ALONG (B
2016-03-31 23:32:00+00:00,2332,UNK,5 NW ETHELSVILLE,PICKENS,AL,33.46,-88.28,TORNADO START POINT. THE TORNADO STARTED IN MISSISSIPPI AND CROSSED THE STATE LINE INTO PICKENS COUNTY ALABAMA ABOUT 2.3 MILES SOUTH OF HIGHWAY 82. THE TORNADO TRACKED (BMX)
2017-08-31 20:51:00+00:00,2051,UNK,5 WSW ASHCRAFT CORNER,PICKENS,AL,33.49,-87.98,MULTIPLE TREES BLOCKING THE ROAD AND POSSIBLE ENTRAPMENT. REPORT RELAYED VIA SOCIAL MEDIA. TIME APPROXIMATE. (BMX)
2016-03-31 23:43:00+00:00,2343,UNK,4 NNE ETHELSVILLE,PICKENS,AL,33.47,-88.19,TORNADO START POINT. THE TORNADO TOUCHED DOWN NEAR COUNTY ROAD 75 JUST SOUTH OF HIGHWAY 34. NUMEROUS TREES WERE SNAPPED AND UPROOTED ALONG COUNTY ROAD 75 AND SOME MINOR (BMX)
2016-03-31 23:48:00+00:00,2348,UNK,4 SW SHAW,PICKENS,AL,33.47,-88.15,TORNADO END POINT. THE TORNADO CONTINUED EASTWARD ALONG HIGHWAY 34 AND PRODUCED LOSS OF SHINGLES TO A HOME AND DESTROYED SEVERAL OUTBUILDINGS. THE TORNADO CROSSED SHOCK (BMX)
2016-03-31 23:37:00+00:00,2337,UNK,6 NNW ETHELSVILLE,PICKENS,AL,33.48,-88.26,TORNADO END POINT. ESTIMATED PEAK WIND 100 MPH. PATH LENGTH 2.08 MILES. MAXIMUM PATH WIDTH 500 YARDS. (BMX)
2016-02-03 05:02:00+00:00,0502,UNK,3 ESE ETHELSVILLE,PICKENS,AL,33.4,-88.16,TORNADO TOUCHED DOWN BETWEEN KEASLER RD AND HERITAGE RD. IT MOVED NORTHEAST CAUSING ONLY TREE DAMAGE AS IT CROSSED CR 30...US HWY 82 AND PRICE RD. THE TORNADO LIFTED BE (BMX)
2015-04-19 13:43:00+00:00,1343,UNK,7 N HAWKINSVILLE,RUSSELL,AL,32.13,-85.23,THE TORNADO TOUCHED DOWN IN A VERY RURAL PORTION OF SOUTHWEST RUSSELL COUNTY...NEAR THE BARBOUR COUNTY LINE ALONG PERRYS WELL ROAD. THE TORNADO TRAVELED NORTHEAST APPRO (BMX)
2016-02-16 01:00:00+00:00,0100,UNK,5 W PARKMANVILLE,RUSSELL,AL,32.4,-85.25,A WEAK EF0 TORNADO WAS CONFIRMED IN RUSSELL COUNTY NEAR THE COMMUNITY OF CRAWFORD. NUMEROUS TREES WERE SNAPPED OR UPROOTED WITH THE HEAVIEST DAMAGE NOTED ALONG BROWN RO (BMX)
2016-02-16 00:57:00+00:00,0057,UNK,4 NNE UCHEE,RUSSELL,AL,32.4,-85.35,AN EF1 TORNADO WAS CONFIRMED ACROSS NORTHWEST RUSSELL COUNTY NEAR THE COMMUNITY OF HUGULEY. NUMEROUS TREES WERE UPROOTED OR SNAPPED WITH THE MOST CONCENTRATED DAMAGE AL (BMX)
2016-04-07 04:57:00+00:00,0457,UNK,4 SW CRAWFORD,RUSSELL,AL,32.42,-85.24,A 7.49 MILE LONG 200 YARD WIDE TOR WITH WINDS OF 90 MPH TOUCHED DOWN ON STILLWELL RD AND CAUSED SIGNIFICANT TREE DAMAGE ALONG RICHARDSON RD. ROOF DAMAGE OCCURRED ALONG (BMX)
2015-04-19 14:17:00+00:00,1417,UNK,3 SSE FORT MITCHELL ACT,RUSSELL,AL,32.27,-85.0,THE TORNADO TOUCHED DOWN SOUTH OF COUNTY ROAD 18 JUST WEST OF HIGHWSY 165. THE TORNADO TRACKED NORTHEAST AND CROSSED HIGHWAY 165...AND CAUSED STRUCTURAL DAMAGE TO SEVER (BMX)
2016-04-07 05:25:00+00:00,0525,UNK,5 NNE HAWKINSVILLE,RUSSELL,AL,32.1,-85.2,BRIEF TOR WITH WINDS OF 70MPH TOUCHED DOWN ALONG BARBOUR CREEK RD SNAPPING AND UPROOTING NUMEROUS TREES. (BMX)
2015-08-07 01:40:00+00:00,0140,UNK,4 ESE RUSSELL COUNTY SP,RUSSELL,AL,32.31,-85.08,NWS METEOROLOGISTS CONFIRMED THAT A WEAK TORNADO TOUCHED DOWN JUST NORTH OF THE AVALON CHURCH ON TARVER RD NEAR SEALE AND TRACKED NORTHEASTWARD THROUGH THE AVALON COMMU (BMX)
2016-11-30 02:54:00+00:00,0254,UNK,1 ESE ARLEY,WINSTON,AL,34.08,-87.19,AN EF1 TORNADO WITH PEAK WINDS OF 105MPH TOUCHED DOWN ESE OF ARLEY. PATH WIDTH OF 300 YDS AND PATH WIDE OF 4.5 MILES . THE DURATION OF THE TORNADO EVENT WAS 6 MINUTES. (BMX)
2016-11-30 02:06:00+00:00,0206,UNK,2 S ASHRIDGE,WINSTON,AL,34.19,-87.47,AN EF2 TOR WITH PEAK WINDS OF 125MPH TOUCHED DOWN S OF ASHRIDGE. PATH LENGTH OF 3.2 MI. PATH WIDTH OF 300YDS. THE DURATION OF THE TORNADO EVENT WAS 6 MINUTES. (BMX)
2016-11-30 02:04:00+00:00,0204,UNK,2 S PEBBLE,WINSTON,AL,34.25,-87.54,AN EF1 TORNADO TOUCHED DOWN E OF HALEYVILLE WITH PEAK WINDS OF 100-105MPH. PATH WIDTH OF 100 YDS... PATH LENGTH OF 0.4 MILES. THE DURATION OF THE TORNADO EVENT WAS 2 MI (BMX)
2016-11-30 04:20:00+00:00,0420,UNK,2 NNW HELICON,WINSTON,AL,34.16,-87.16,AN EF1 TOR WITH PEAK WINDS OF 110MPH TOUCHED DOWN NNE OF ARLEY. PATH LENGTH OF 3.0 MI. PATH WIDTH OF 100YDS. THE DURATION OF THE TORNADO EVENT WAS 5 MINUTES. (BMX)
2017-04-06 01:39:00+00:00,0139,UNK,PENTON,CHAMBERS,AL,33.01,-85.47,SEVERAL TREES WERE UPROOTED ALONG THE PATH. ONE BARN SUFFERED MINOR DAMAGE... ONE BARN SUFFERED MAJOR DAMAGE AND ONE SMALL FIRE STATION HAD MAJOR DAMAGE. (BMX)
2015-04-19 13:38:00+00:00,1338,UNK,1 WNW LEESBURG,CHEROKEE,AL,34.18,-85.78,THE TORNADO TOUCHED DOWN ALONG KEENER DR JUST NORTHWEST OF THE CITY OF LEESBURG. MULTIPLE TREES WERE SNAPPED OR UPROOTED...AND UNFORTUNATELY ONE TREE FELL ONTO A RESIDE (BMX)
2017-04-05 21:40:00+00:00,2140,UNK,3 SSE TRICKEM,CLEBURNE,AL,33.52,-85.41,MINOR TREE DAMAGE... DAMAGE TO A CHICKEN HOUSE ROOF. TORNADO CAUGHT ON VIDEO. (BMX)
2015-01-04 09:18:00+00:00,0918,UNK,5 WNW BRANTLEY,CRENSHAW,AL,31.61,-86.34,PUBLIC REPORT OF CHICKEN HOUSES DESTROYED AND HOMES DAMAGED ON CAMERON CHAPEL RD. CRENSHAW COUNTY 911 REPORTS TREES ON HOMES IN SPRING HILL AREA. EXTENT OF DAMAGE UNKNO (MOB)
2015-01-04 09:32:00+00:00,0932,UNK,3 E LUVERNE,CRENSHAW,AL,31.72,-86.21,REPORTS OF HOMES DAMAGED NEAR GIN CREEK RD AND GLENWOOD. EXTENT OF DAMAGE UNKNOWN. TREES DOWN AS WELL. (MOB)
2016-02-15 22:05:00+00:00,2205,UNK,4 SW BREWTON,ESCAMBIA,AL,31.08,-87.12,BROADCAST MEDIA RELAYED A PUBLIC REPORT OF A TORNADO ALONG FOSHEE RD NEAR BREWTON. (MOB)
2016-02-15 21:51:00+00:00,2151,UNK,3 NE CENTURY,ESCAMBIA,AL,31.0,-87.23,STRUCTURAL AND TREE DAMAGE REPORTED ALONG FANNIE RD EAST OF FLOMATON. REPORTED BY ESCAMBIA COUNTY EMA. (MOB)
2016-11-30 01:05:00+00:00,0105,UNK,5 NNW BELGREEN,FRANKLIN,AL,34.54,-87.9,*** 3 INJ *** AN EF-2 TORNADO WITH PEAK WINDS OF 115 MPH...MAXIMUM PATH WIDTH OF 100 YARDS...AND A PATH LENGTH OF 11 MILES. (HUN)
2017-04-22 20:45:00+00:00,2045,UNK,7 NE RED BAY,FRANKLIN,AL,34.5,-88.04,DEBRIS REPORTED FALLING AT INTERSECTION 247 AND 23. DAMAGE REPORTED AT THE SHILOH BAPTIST CHURCH. DEBRIS SIGNATURE ON RADAR. RELAYED BY MEDIA AND EMA. (HUN)
2017-04-22 20:31:00+00:00,2031,UNK,5 N RED BAY,FRANKLIN,AL,34.52,-88.14,EF-0 WITH MAXIMUM WIND SPEED OF 75 MPH... PATH LENGTH OF 5.6 MILES... AND MAXIMUM PATH WIDTH OF 720 YARDS. (HUN)
2015-07-14 23:14:00+00:00,2314,UNK,1 WNW TOWN CREEK,LAWRENCE,AL,34.69,-87.43,AN EF-1 TORNADO WITH 100 MPH MAXIMUM WINDS...A PATH LENGTH OF 11.4 MILES AND A PATH WIDTH OF 250 YARDS DEVELOPED ALONG COUNTY ROAD 273 ABOUT A MILE WEST OF TOWN CREEK A (HUN)
2017-11-18 23:18:00+00:00,2318,UNK,5 SW TOWN CREEK,LAWRENCE,AL,34.61,-87.46,EF-1 TORNADO WITH PEAK WIND OF 110 MPH... PATH LENGTH OF 4.3 MILES AND PATH WIDTH OF 300 YARDS. (HUN)
2017-12-20 16:40:00+00:00,1640,UNK,2 SW CRYSTAL LAKE,RANDOLPH,AL,33.17,-85.43,A BRIEF... BOTTOM-OF-THE-BARREL EF-0 TORNADO MOVED ALONG AN EASTWARD TRACK JUST NORTH OF COUNTY ROAD 22 IN SOUTHERN RANDOLPH COUNTY... RESULTING IN ROOFING DAMAGE TO A (BMX)
2016-02-15 22:57:00+00:00,2257,UNK,2 NW RED LEVEL,COVINGTON,AL,31.43,-86.64,*** 1 INJ *** COVINGTON COUNTY EMA REPORTED A MOBILE HOME DESTROYED WITH 1 INJURY. (MOB)
2017-06-22 00:10:00+00:00,0010,UNK,2 NW ONYCHA,COVINGTON,AL,31.23,-86.31,LAW ENFORCEMENT AND PUBLIC REPORTED A TORNADO NORTH OF ONYCHA MOVING NORTH (MOB)
2017-02-07 21:23:00+00:00,2123,UNK,1 ENE ANDALUSIA,COVINGTON,AL,31.31,-86.46,A TORNADO MOVED ACROSS A HALF MILE AREA ON THE EAST SIDE OF ANDALUSIA WHICH AFFECTED TWO RESIDENTIAL AREAS AND A CAMPGROUND. THE TORNADO CAUSED SHINGLE DAMAGE TO SEVERA (MOB)
2016-03-01 23:43:00+00:00,2343,UNK,3 SSW BESSEMER,JEFFERSON,AL,33.33,-86.98,REPORT OF A HOME LEVELED. TIME ESTIMATED BY RADAR. (BMX)
2016-03-01 23:12:00+00:00,2312,UNK,4 NW FAIRFIELD,JEFFERSON,AL,33.52,-86.96,TREE REPORTED DOWN. TIME ESTIMATED BY RADAR. UPDATED EVENT TYPE. (BMX)
2015-12-25 22:56:00+00:00,2256,UNK,2 SSE FAIRFIELD,JEFFERSON,AL,33.45,-86.91,TREES DOWN AND STRUCTURAL DAMAGE. PERSON TRAPPED IN THEIR HOMES. UNKNOWN INJURIES. TIME ESTIMATED FROM RADAR. (BMX)
2017-06-22 17:27:00+00:00,1727,UNK,1 NW MIDFIELD,JEFFERSON,AL,33.47,-86.92,*** 4 INJ *** STRUCTURAL DAMAGE REPORTED AT A LIQUOR STORE NEAR WESTERN HILLS MALL IN FAIRFIELD. POSSIBLE ENTRAPMENT AND 4 INJURIES REPORTED. STORM SURVEY FINDS DAMAGE (BMX)
2016-03-01 23:48:00+00:00,2348,UNK,5 SE BESSEMER,JEFFERSON,AL,33.32,-86.91,CEDAR TREE DOWN... ESTIMATED 20 TO 30 FOOT DIAMETER. TIME ESTIMATED. (BMX)
2017-06-22 17:45:00+00:00,1745,UNK,1 NNE ENSLEY,JEFFERSON,AL,33.53,-86.88,TORNADO OBSERVED BY AIR TRAFFIC CONTROLLERS AT THE BIRMINGHAM INTERNATIONAL AIRPORT. TIME AND LOCATION APPROXIMATE. (BMX)
2015-12-25 23:01:00+00:00,2301,UNK,2 SE FAIRFIELD,JEFFERSON,AL,33.45,-86.9,DEBRIS IN THE AIR AND A TDS DUAL POL SIGNATURE (BMX)
2016-08-19 22:55:00+00:00,2255,UNK,5 NNW DECATUR,LIMESTONE,AL,34.67,-87.01,SEVERAL PHOTOS ON SOCIAL MEDIA INDICATED A TORNADO AND POSSIBLY A WATERSPOUT ALONG OR JUST OFFSHORE OF WHEELER RESERVOIR/TENNESSEE RIVER ABOUT 5 MILES NORTH-NORTHWEST O (HUN)
2015-04-20 06:45:00+00:00,0645,UNK,5 WNW HARVEST,LIMESTONE,AL,34.87,-86.83,EF0 WITH MAXIMUM WIND SPEEDS OF 75 MPH. PATH LENGTH 0.76 MILES. PATH WIDTH UP TO 100 YARDS. SURVEYED BY UA-HUNTSVILLE ATMOSPHERIC SCIENCE DEPARTMENT / SWIRLL. TREE DAMA (HUN)
2017-01-19 23:58:00+00:00,2358,UNK,1 WNW COUNTRY CLUB ESTA,ST. CLAIR,AL,33.48,-86.3,A BRIEF WEAK TORNADO SPUN UP ALONG THE SHORES OF LOGAN MARTIN LAKE NEAR CROPWELL. SEVERAL BOATHOUSES WERE DAMAGED OR DESTROYED AND NUMEROUS TREES WERE SNAPPED OR UPROOT (BMX)
2016-03-02 00:42:00+00:00,0042,UNK,3 NNE STEWARTVILLE,TALLADEGA,AL,33.12,-86.22,TORNADO TOUCHED DOWN ALONG SETTLEMENT ROAD TO THE EAST OF THE OLD ROCK HOUSE. IT MOVED NORTHEAST TO NEAR CHERRY AND HEFLIN LANES THEN TURNED TO THE EAST AND TRACKED PAR (BMX)
2015-12-24 01:00:00+00:00,0100,UNK,3 N WATERLOO,LAUDERDALE,AL,34.95,-88.07,EF-2 TORNADO SNAPPED AND UPROOTED NUMEROUS TREES...DAMAGED SEVERAL SINGLE FAMILY HOMES...AND ONE CHURCH ALONG ITS 7.4 MILE PATH. MAX WIND SPEED 115 MPH. MAX PATH WIDTH (HUN)
2015-12-24 01:05:00+00:00,0105,UNK,5 SE WALNUT GROVE,LAUDERDALE,AL,35.0,-87.98,HOUSES DAMAGED ALONG CR 40 JUST SOUTH OF THE TENNESSEE LINE. DAMAGE CORRESPONDS TO TORNADO DEBRIS SIGNATURE FROM DUAL POL RADAR. TIME ESTIMATED FROM RADAR. (HUN)
2016-02-15 22:00:00+00:00,2200,UNK,5 SSW CECIL,MONTGOMERY,AL,32.24,-86.02,THE TORNADO FIRST TOUCHED DOWN JUST SOUTH OF DAWSON ROAD...TOPPING 2 TREES. IT THEN PROCEEDED NORTHEAST... PARALLELING DAWSON ROAD. AS THE TORNADO APPROACHED FLOWERS RO (BMX)
2016-04-07 04:24:00+00:00,0424,UNK,4 WNW SHOPTON,MONTGOMERY,AL,32.13,-86.0,A WEAK TORNADO TOUCHED DOWN BRIEFLY NEAR THE MATHEWS COMMUNTY SOUTHWEST OF THE INTERSECTION OF US HWY 82 AND OLD PIKE ROAD...SNAPPING A FEW TREES ALONG THE .77 MILE LON (BMX)
2017-02-07 19:42:00+00:00,1942,UNK,3 SW CECIL,MONTGOMERY,AL,32.27,-86.05,NWS METEOROLOGISTS SURVEYED DAMAGE SOUTH OF THE PIKE ROAD COMMUNITY AND DETERMINED THAT THE DAMAGE WAS CONSISTENT WITH A EF-0 TORNADO WITH MAXIMUM WINDS ESTIMATED NEAR (BMX)
2017-04-27 13:13:00+00:00,1313,UNK,4 WSW MITCHELL,MONTGOMERY,AL,32.24,-86.0,DAMAGE PHOTO INDICATING NARROW AREA OF CONVERGENT TREE DAMAGE ON STOWERS RD ASSOCIATED WITH DEBRIS SIGNATURE FROM KMXX. 913 CDT. (BMX)
2017-04-27 14:13:00+00:00,1413,UNK,4 WSW MITCHELL,MONTGOMERY,AL,32.24,-86.0,DAMAGE PHOTO INDICATING NARROW AREA OF CONVERGENT TREE DAMAGE ON STOWERS RD ASSOCIATED WITH DEBRIS SIGNATURE FROM KMXX. (BMX)
2016-02-15 22:05:00+00:00,2205,UNK,3 S CECIL,MONTGOMERY,AL,32.26,-86.0,THE ENDING POINT TO THE MONTGOMERY COUNTY TORNADO... (BMX)
2016-04-07 03:55:00+00:00,0355,UNK,5 SSE MONTGOMERY,MONTGOMERY,AL,32.3,-86.24,A 6 MILE LONG 250 YARD WIDE TORNADO WITH WINDS UP TO 80 MPH TOUCHED DOWN NEAR THE INTERSECTION OF WOODLEY AND VIRGINIA LOOP ROADS. NUMEROUS LARGE TREES SNAPPED AND UPRO (BMX)
2015-12-25 21:39:00+00:00,2139,UNK,3 SW MERCEDE,TUSCALOOSA,AL,33.15,-87.29,MULTIPLE PINE TREES SNAPPED ALONG WIRE RD AND DUDLEY RD. TIME ESTIMATED FROM RADAR. (BMX)
2015-12-25 21:31:00+00:00,2131,UNK,2 S COALING,TUSCALOOSA,AL,33.13,-87.35,WEAK TORNADO WITH MAX WINDS OF 75 MPH TOUCHED DOWN ALONG CLEMENTS RD AND MOVED NORTHEAST CROSSING HAGLER COALING RD...WIRE RD AND DUDLEY RD BEFORE LIFTING JUST NE OF DU (BMX)
2017-01-22 06:36:00+00:00,0636,UNK,1 N HAGLER,TUSCALOOSA,AL,33.04,-87.34,BRIEF EF0 WITH WINDS OF 80MPH TOUCHED DOWN ALONG HAGLER COALING RD... DOWNING A DOZEN TREES. ONE TREE DAMAGED A HOME. PATH LENGTH 0.3 MILE. MAX WIDTH 200YDS. THE DURATI (BMX)
2015-12-23 20:55:00+00:00,2055,UNK,6 S MARIANNA,LEE,AR,34.69,-90.77,COUNTY EM REPORTS TORNADO DAMAGE SOUTH OF MARIANNA. GRAIN BINS FLATTENED... ROOF BLOWN OFF A BRICK HOUSE... MOBILE HOME COMPLETELY DESTROYED... CABINS DAMAGED (MEG)
2015-12-28 10:46:00+00:00,1046,UNK,10 SW MARIANNA,LEE,AR,34.67,-90.89,NWS STORM SURVEY REVEALED THAT A TORNADO CAUSED EF-2 DAMAMGE 10 MILES SW OF MARIANA. THE TORNADO DESTROYED MOBILE HOMES AND CAUSED ROOF DAMAGE TO OTHER HOMES. (MEG)
2016-03-14 01:30:00+00:00,0130,UNK,3 N LEXA,LEE,AR,34.64,-90.75,CONE SHAPED TORNADO CROSSED HIGHWAY 1 NEAR LEXA AND CYPRESS JUNTION. POWER FLASHES AND POWER LINES DOWN. (MEG)
2017-04-30 10:50:00+00:00,1050,UNK,4 N PLEASANT GROVE,DREW,AR,33.54,-91.77,EF0 DAMAGE OCCURED IN DREW COUNTY. (LZK)
2017-04-30 10:45:00+00:00,1045,UNK,4 N PLEASANT GROVE,DREW,AR,33.54,-91.77,EF0 DAMAGE OCCURED IN DREW COUNTY. (LZK)
2015-12-28 00:06:00+00:00,0006,UNK,3 SSW WILMAR,DREW,AR,33.58,-91.96,NWS STORM SURVEY REVEALED AN EF-1 TORNADO...WHICH KNOCKED DOWN SEVERAL PINE TREES. SOME PINE TREES WERE SNAPPED...AND A ROOF WAS RIPPED OFF A HOME AND THROWN TO THE NW (LZK)
2017-03-30 00:18:00+00:00,0018,UNK,2 WNW HECTOR,POPE,AR,35.48,-93.01,REPORT OF RAIN-WRAPPED TORNADO ON GUNTER MOUNTAIN ROAD WNW OF HECTOR. (LZK)
2015-05-25 23:40:00+00:00,2340,UNK,3 SE OLA,YELL,AR,35.0,-93.19,CONFIRMED TORNADO ON THE GROUND 3 MILES SOUTHEAST OF OLA. (LZK)
2015-05-25 23:35:00+00:00,2335,UNK,1 NNE CARDEN POINT PARK,YELL,AR,34.99,-93.19,SOME TREES AND POWER LINES WERE BLOWN DOWN. TORNADO WAS 0.4 MILES LONG AND 100 YDS WIDE. (LZK)
2017-04-05 02:34:00+00:00,0234,UNK,2 S WILLIS,BOONE,AR,36.35,-92.99,THIS IS A DELAYED REPORT. A DAMAGE SURVEY CONCLUDED THAT A TORNADO OCCURRED THE NIGHT OF APRIL 4TH... 2017 NEAR BERGMAN. (LZK)
2017-04-29 20:16:00+00:00,2016,UNK,2 WNW BELLEFONTE,BOONE,AR,36.21,-93.08,HIGHER END EF1 DAMAGE FOUND BY NWS SURVEY TEAM. (LZK)
2015-04-03 05:36:00+00:00,0536,UNK,3 SSW BURLINGTON,BOONE,AR,36.35,-93.25,TORNADO BEGAN SW OF BURLINGTON AND TRACKED EAST SOUTHEAST FOR 6.9 MILES. TORNADO WAS RATED AN EF-1 WITH A PATH WIDTH OF 300 YARDS. DAMAGE WAS TO A TURKEY HOUSE WEST OF (LZK)
2016-03-14 02:10:00+00:00,0210,UNK,5 N PARKIN,CROSS,AR,35.34,-90.55,AN EF-1 TORNADO TOUCHED DOWN FOR ABOUT 5 MINUTES CAUSING DAMAGE TO A HOUSE...A FEW OUTBUILDINGS...AND AN AIRPLANE HANGAR. (MEG)
2015-03-31 20:15:00+00:00,2015,UNK,WATSON,DESHA,AR,33.89,-91.26,(LZK)
2016-03-14 02:22:00+00:00,0222,UNK,2 NW HALLEY,DESHA,AR,33.55,-91.35,CONTINUATION OF TORNADO FROM CHICOT COUNTY AR. CROSSED INTO DESHA COUNTY WHERE IT SNAPPED AND UPROOTED TREES AND DOWNED POWER LINES. PATH LENGTH INSIDE DESHA COUNTY 2.6 (LZK)
2015-03-31 20:00:00+00:00,2000,UNK,11 NE DUMAS,DESHA,AR,34.0,-91.35,(LZK)
2016-12-18 00:56:00+00:00,0056,UNK,5 N GRAPEVINE,GRANT,AR,34.22,-92.32,(LZK)
2016-03-13 20:56:00+00:00,2056,UNK,2 ESE LAKE HINKLE,SCOTT,AR,34.85,-94.25,TORNADO UPROOTED TREES AND CAUSED DAMAGE TO SEVERAL BUILDINGS. PATH LENGTH 4.4 MI...MAX WIDTH 850 YDS...MAX WIND 86 TO 110 MPH. (LZK)
2017-01-22 01:04:00+00:00,0104,UNK,9 SW EL DORADO,UNION,AR,33.13,-92.77,AN EF1 TORNADO TOUCHED DOWN SOUTHWEST OF EL DORDO... ARKANSAS. DAMAGE CONSISTED OF SEVERAL SMALL SNAPPED PINES AT INITIAL TOUCHDOWN BUT AS THE STORM MOVED NORTH NORTHEA (SHV)
2017-01-22 01:38:00+00:00,0138,UNK,11 ESE EL DORADO,UNION,AR,33.16,-92.49,AN EF0 TORNADO TOUCHED DOWN EAST OF EL DORADO ARKANSAS...SNAPPING A FEW SMALL TREES NEAR THE LAWSON COMMUNITY. THE TORNADO HIT A SINGLE WIDE MOBILE HOME...PEELING BACK (SHV)
2016-03-14 00:15:00+00:00,0015,UNK,7 N STRONG,UNION,AR,33.21,-92.36,ROPE TORNADO REPORTED IN THE NEW LONDON COMMUNITY (SHV)
2017-03-01 01:03:00+00:00,0103,UNK,1 W HIGGINSON,WHITE,AR,35.19,-91.73,*** 4 INJ *** THIS TORNADO WAS RATED EF1 WITH WINDS ESTIMATED AT 110 MPH. THE TORNADO TRACKED 1.5 MILES... AND HAD A WIDTH OF 120 YARDS. THERE WERE FOUR INJURIES. (LZK)
2017-04-30 05:37:00+00:00,0537,UNK,2 N WALKER,WHITE,AR,35.15,-91.7,AN EF1 TORNADO WAS CONFIRMED IN WHITE COUNTY. A MOBILE HOME SHIFTED OFF ITS FOUNDATION...WITH SEVERAL TREES SNAPPED OR UPROOTED. SEVERAL STRUCTURES WERE DAMAGED...WITH (LZK)
2017-03-01 01:09:00+00:00,0109,UNK,SW KENSETT,WHITE,AR,35.24,-91.67,THIS TORNADO WAS RATED EF2 WITH WINDS ESTIMATED AT 115 MPH. THE TORNADO BEGAN ROUGHLY 0.8 MILE SOUTHWEST OF KENSETT. THE SURVEY IS STILL IN PROGRESS. (LZK)
2017-01-22 02:45:00+00:00,0245,UNK,2 NW HAMBURG,ASHLEY,AR,33.24,-91.82,BRIEF TOUCHDOWN IN A FIELD JUST NORTHWEST OF HAMBURG. PICTURE EVIDENCE FROM PUBLIC/STORM CHASER. NO DAMAGE NOTED DURING NWS SURVEY. TRACKED ABOUT HALF A MILE... 50 YARD (JAN)
2015-03-25 22:15:00+00:00,2215,UNK,WAR EAGLE,BENTON,AR,36.27,-93.94,PROBABLE RAIN WRAPPED TORNADO. TREE DAMAGE. (TSA)
2015-05-28 19:09:00+00:00,1909,UNK,HIGHFILL,BENTON,AR,36.26,-94.36,A TORNADO UPROOTED TREES...DAMAGED BARNS AND OUTBUILDINGS...AND DAMAGED A CHICKEN HOUSE. (TSA)
2017-05-19 05:07:00+00:00,0507,UNK,4 SW BENTONVILLE,BENTON,AR,36.33,-94.26,A TORNADO DAMAGED THE ROOFS OF A NUMBER OF HOMES...UPROOTED TREES...AND SNAPPED NUMEROUS LARGE TREE LIMBS. BASED ON THIS DAMAGE...THE TORNADO WAS RATED EF-0. (TSA)
2016-04-27 05:29:00+00:00,0529,UNK,1 NE DECATUR,BENTON,AR,36.35,-94.45,TIME ESTIMATED BY RADAR. (TSA)
2015-05-28 19:40:00+00:00,1940,UNK,2 NW BENTONVILLE,BENTON,AR,36.4,-94.23,A TORNADO DAMAGED BARNS AND BLEW DOWN TREES. IT WAS WITNESSED BY RESIDENTS OF THE AREA. (TSA)
2016-04-27 05:41:00+00:00,0541,UNK,1 N CENTERTON,BENTON,AR,36.37,-94.29,A TORNADO DAMAGED THE ROOFS OF HOMES...UPROOTED TREES...AND SNAPPED LARGE TREE LIMBS. (TSA)
2015-07-09 22:55:00+00:00,2255,UNK,GENTRY,BENTON,AR,36.27,-94.48,VIDEO FOOTAGE OF TORNADO NEAR GENTRY WEST OF MCKEY FOODS. TIME ESTIMATED BY RADAR. (TSA)
2016-03-14 02:15:00+00:00,0215,UNK,1 SSW DERMOTT,CHICOT,AR,33.51,-91.45,*** 1 INJ *** TORNADO BEGAN IN SW DERMOTT NEAR BUCKNER LN... CONTINUED ACROSS TROTTER ST AND US HWY 165 BEFORE HITTING DETLA REGIONAL CORRECTIONAL FACILITY WHERE AN EMPLO (JA
2016-03-31 04:11:00+00:00,0411,UNK,5 S DERMOTT,CHICOT,AR,33.45,-91.45,THIS TORNADO BEGAN JUST EAST OF HWY 165 AND NORTH OF GIBSON RD WHERE A 120 FT TALL RADIO ANTENNA WAS BLOWN OVER. THE TORNADO CONTINUED NORTH PARALLELING HWY 165. THE TO (JAN)
2016-03-31 04:15:00+00:00,0415,UNK,DERMOTT,CHICOT,AR,33.53,-91.44,HEAVY DAMAGE IN THE CITY OF DERMOTT. MULTIPLE POWERLINES AND POWERPOLES DOWNED. MANY TREES BLOWN DOWN. MULTIPLE HOMES DAMAGED...SOME WITH HEAVY DAMAGE. A NURSING HOME I (JAN)
2015-04-19 22:34:00+00:00,2234,UNK,OVERCUP,CONWAY,AR,35.22,-92.7,DAMAGE MAINLY CONSISTED OF SNAPPED OR UPROOTED TREES. THERE WAS ALSO MINOR DAMAGE TO OUTBUILDINGS AND CHICKEN HOUSES. (LZK)
2016-03-13 20:43:00+00:00,2043,UNK,10 N DIERKS,HOWARD,AR,34.27,-94.02,SPOTTED BRIEF ROPE TORNADO (SHV)
2015-05-11 04:18:00+00:00,0418,UNK,1 SW NASHVILLE,HOWARD,AR,33.93,-93.87,*** 2 FATAL... 8 INJ *** AN EF2 TORNADO TOUCHED DOWN ON THE SOUTHWEST SIDE OF NASHVILLE. DAMAGE CONSISTED OF 5 MOBILE HOMES COMPLETELY DESTROYED. NUMEROUS TREES WERE SNAP (SH
2017-04-30 07:15:00+00:00,0715,UNK,3 SE TOMBERLIN,LONOKE,AR,34.49,-91.84,NWS STORM SURVEY CONFIRMED AN EF1 TORNADO TOUCHED DOWN NEAR THE LONOKE/JEFFERSON COUNTY LINE...LIFTING AT ALLPORT WEST OF HUMNOKE. TREES AND POWERPOLES WERE SNAPPED...W (LZK)
2015-12-28 02:57:00+00:00,0257,UNK,3 SSE WILLISVILLE,NEVADA,AR,33.48,-93.28,TORNADO SNAPPED AND UPROOTED NUMEROUS TREES. SEVERAL OUTBUILDINGS WERE DESTROYED...AND ONE HOME HAD ROOF DAMAGE. (SHV)
2015-12-27 22:36:00+00:00,2236,UNK,3 SE WILLISVILLE,NEVADA,AR,33.49,-93.26,AN EF-1 TORNADO SNAPPED AND UPROOTED HUNDREDS OF TREES...DAMAGED OR DESTROYED SEVERAL OUTBULDINGS...AND DAMAGED ROOFS OF SEVERAL HOMES ALONG ITS PATH. THE PATH LENGTH W (SHV)
2017-03-07 05:38:00+00:00,0538,UNK,2 N MOSSVILLE,NEWTON,AR,35.92,-93.39,*** 1 INJ *** AN EF-2 TORNADO CUT A 36.7 MILE PATH ACROSS NEWTON AND SEARCY COUNTY. DAMAGE INCLUDED TREES BEING UPROOTED AND SNAPPED. SEVERAL RESIDENCES WERE DAMAGED. T (LZK)
2016-05-10 03:36:00+00:00,0336,UNK,1 WNW AVILLA,SALINE,AR,34.69,-92.6,NUMEROUS TREES UPROOTED AND SNAPPED...WITH SOME FALLING ON A HOME. (LZK)
2015-12-27 23:06:00+00:00,2306,UNK,NW HERMITAGE,BRADLEY,AR,33.45,-92.17,NWS STORM SURVEY REVEALED AN EF1 TORNADO...WHICH STRETCHED FROM HERMITAGE TO SW OF WARREN...OR 2 MILES NE OF FARMVILLE. MANY PINE TREES WERE SNAPPED OR UPROOTED. A SHED (LZK)
2015-12-27 22:10:00+00:00,2210,UNK,5 W HAMPTON,CALHOUN,AR,33.54,-92.55,CALHOUN SHERIFFS OFFICE REPORTS TORNADO ON GROUND WEST OF HAMPTON. (LZK)
2015-03-25 22:47:00+00:00,2247,UNK,2 S BERRYVILLE,CARROLL,AR,36.34,-93.57,RAIN WRAPPED TORNADO (TSA)
2017-04-26 06:25:00+00:00,0625,UNK,2 S BEAVER,CARROLL,AR,36.44,-93.77,A NWS SURVEY TEAM CONFIRMED THE DAMAGE NEAR HOLIDAY ISLAND WAS PRODUCED BY A TORNADO. THE SURVEY IS STILL UNDERWAY AND NOT COMPLETE. THE HIGHEST RATED DAMAGE SO FAR IS (TSA)
2017-03-01 09:13:00+00:00,0913,UNK,3 WSW POSSUM GRAPE,JACKSON,AR,35.45,-91.47,THIS TORNADO WAS RATED EF1... WITH WINDS ESTIMATED AT 110 MPH. THE TORNADO HAD A 4.2 MILE TRACK... AND WAS 200 YARDS WIDE. (LZK)
2017-03-01 09:20:00+00:00,0920,UNK,SE DIAZ,JACKSON,AR,35.65,-91.26,THIS TORNADO WAS RATED EF1... WITH WINDS ESTIMATED AT 110 MPH. THE TORNADO HAD A 1.6 MILE TRACK... AND WAS 125 YARDS WIDE. (LZK)
2017-03-01 07:28:00+00:00,0728,UNK,1 S LAMAR,JOHNSON,AR,35.42,-93.38,STORM SURVEY TEAM DETERMINED THAT AN EF1 TORNADO WENT THROUGH LAMAR. SEVERE ROOF DAMAGE WAS SUSTAINED TO A HOME. (LZK)
2015-03-31 19:40:00+00:00,1940,UNK,7 SW GILLETT,LINCOLN,AR,34.05,-91.47,(LZK)
2015-03-25 22:30:00+00:00,2230,UNK,2 N CLIFTY,MADISON,AR,36.27,-93.8,(TSA)
2017-03-07 05:01:00+00:00,0501,UNK,CROSSES,MADISON,AR,35.87,-93.91,EF1. MAX WINDS 85-95 MPH. TORNADO CROSSED HIGHWAY 16 NORTHWEST OF ST.PAUL. LARGE TREES WERE DOWNED. (TSA)
2016-04-27 06:12:00+00:00,0612,UNK,1 SW WESLEY,MADISON,AR,36.02,-93.93,(TSA)
2015-03-31 19:50:00+00:00,1950,UNK,6 S GILLETT,ARKANSAS,AR,34.03,-91.38,(LZK)
2017-03-01 08:33:00+00:00,0833,UNK,2 ENE FAIRBANKS,CLEBURNE,AR,35.46,-92.24,THIS TORNADO WAS RATED EF1... WITH WINDS CLOSE TO 100 MPH. THE TORNADO TRACKED 3.9 MILES... AND HAD A 250 YARD WIDTH. THE TORNADO AFFECTED THE CROSSROADS COMMUNITY. (LZK)
2016-04-30 06:09:00+00:00,0609,UNK,3 N WALDO,COLUMBIA,AR,33.39,-93.29,A BRIEF EF-1 TORNADO TOUCHED DOWN JUST SW OF US HWY 371 SOUTH OF THE INTERSECTION WITH CR 60. THE TORNADO CROSSED HWY 371 AND SNAPPED SEVERAL TREES BEFORE LIFTING. EST. (SHV)
2016-04-30 05:41:00+00:00,0541,UNK,8 S STAMPS,COLUMBIA,AR,33.24,-93.47,AN EF-1 TORNADO BEGAN JUST SOUTH OF CR 1 IN COLUMBIA COUNTY AND TRAVELED NORTH NORTHEAST INTO LAFAYETTE COUNTY AND LIFTED ALONG CR 21 JUST SOUTH OF CR 81. DAMAGE CONSIS (SHV)
2016-04-11 18:26:00+00:00,1826,UNK,8 ESE MAGNOLIA,COLUMBIA,AR,33.25,-93.09,EF-0 TORNADO BEGAN NEAR CR 294 AND US HWY 82 INTERSECTION AND TRACKED FOR JUST OVER ONE MILE WITH A WIDTH OF 25 YARDS AS IT DAMAGED NUMEROUS TREES AND SNAPPED ONE BEFOR (SHV)
2016-04-27 05:56:00+00:00,0556,UNK,KIBLER,CRAWFORD,AR,35.43,-94.23,(TSA)
2017-04-29 21:58:00+00:00,2158,UNK,4 NW NATURAL DAM,CRAWFORD,AR,35.68,-94.44,A TORNADO UPROOTED TREES...SNAPPED LARGE TREE LIMBS...AND DESTROYED AN OUTBUILDING ON HIGHWAY 59 NORTHWEST OF NATURAL DAM. THE TORNADO MOVE NORTHEAST AND PRODUCED SIMIL (TSA)
2017-05-28 04:53:00+00:00,0453,UNK,3 N CEDARVILLE,CRAWFORD,AR,35.61,-94.36,A TORNADO DEVELOPED ABOUT 2 MILES WEST-SOUTHWEST OF UNIONTOWN IN SEQUOYAH COUNTY OKLAHOMA AND ENDED ABOUT 4.5 MILES EAST-SOUTHEAST OF NATURAL DAM. THE TORNADO DAMAGED H (TSA)
2017-03-25 04:20:00+00:00,0420,UNK,1 ESE CATO,FAULKNER,AR,34.93,-92.25,*** 6 INJ *** THIS SHORT LIVED TORNADO TOUCHED DOWN JUST SOUTH OF FRENCHMAN MTN. RD IN PULASKI CO...CROSSING THIS ROAD INTO FAULKNER CO.BEFORE LIFTING 0.25 MI LATER. FO (LZK)
2016-04-27 06:08:00+00:00,0608,UNK,2 NNW CHARLESTON,FRANKLIN,AR,35.32,-94.05,NUMEROUS TREES UPROOTED...LARGE LIMBS SNAPPED. PRELIM EF1 DAMAGE FROM NWS SURVEY. (TSA)
2016-04-27 06:20:00+00:00,0620,UNK,5 W OZARK,FRANKLIN,AR,35.49,-93.92,A TORNADO DAMAGED CHICKEN HOUSES...DAMAGED HOMES...DAMAGED OUTBUILDINGS...AND SNAPPED LARGE TREE LIMBS. IT WAS RATED EF-0 BASED ON THIS DAMAGE. (TSA)
2016-03-14 01:05:00+00:00,0105,UNK,MARVELL,PHILLIPS,AR,34.56,-90.91,TRAINED SPOTTERS REPORT TORNADO AT INTERSECTION OF US HWY 49 AND ARKANSAS HWY 1 IN WEST SECTION OF MARVELL. (MEG)
2017-04-30 05:57:00+00:00,0557,UNK,4 S AUGUSTA,WOODRUFF,AR,35.23,-91.35,AN EF1 TORNADO WAS CONFIRMED IN WESTERN WOODRUFF COUNTY. SEVERAL TREES WERE UPROOTED OR SNAPPED...WITH DAMAGE TO A METAL SHED. (LZK)
2017-07-03 11:28:00+00:00,1128,UNK,1 NW JONESBORO,CRAIGHEAD,AR,35.83,-90.7,A BRIEF TORNADO TOUCHED DOWN APPROXIMATELY ONE HALF MILE SSE OF DOWNTOWN JONESBORO EARLY MONDAY MORNING. EMERGENCY MANAGEMENT PHOTOS SUPPORT A HIGHLY LOCALIZED AREA OF (MEG)
2015-12-27 21:36:00+00:00,2136,UNK,2 E PATMOS,HEMPSTEAD,AR,33.51,-93.53,TORNADO PARTIALLY LIFTED THE ROOF OFF OF A MOBILE HOME ALONG AR355. THE TORNADO CONTINUED NORTH AND SNAPPED SEVERAL TREES BEFORE LIFTING ALONG HEMPSTEAD COUNTY 9 ROAD. (SHV)
2015-12-23 14:20:00+00:00,1420,UNK,BEE BRANCH,VAN BUREN,AR,35.45,-92.4,DAMAGE TO A HOUSE WAS REPORTED IN BEE BRANCH BY LAW ENFORCEMENT. (LZK)
2016-03-13 21:45:00+00:00,2145,UNK,2 NNE GAP CREEK REC ARE,MONTGOMERY,AR,34.57,-93.44,SIGNIFICANT DAMAGE TO SEVERAL BOAT DOCKS...TREES...AND POWER LINES. SEVERAL HOMES DAMAGED...INCLUDING A MOBILE HOME WITH SUBSTANTIAL DAMAGE. PATH LENGTH 1.7 MI...WIDTH (LZK)
2016-03-24 03:03:00+00:00,0303,UNK,4 WNW ODELL,WASHINGTON,AR,35.79,-94.48,PRELIMINARY RATING EF-2 (TSA)
2017-04-30 07:07:00+00:00,0707,UNK,2 W DELL,MISSISSIPPI,AR,35.85,-90.07,TORNADO BEGAN APPROXIMATELY 1.5 MILES WEST-SOUTHWEST OF DELL AND MOVED NORTHEAST ALONG HIGHWAY 18...EVENTUALLY LIFTING 4 MILES NORTHEAST OF DELL. PATH LENGTH WAS 5.6 MI (MEG)
2015-12-27 22:22:00+00:00,2222,UNK,5 SW FOREMAN,LITTLE RIVER,AR,33.67,-94.46,TORNADO ON THE GROUND AT HWY 41 RED RIVER BRIDGE GOING NE. (SHV)
2017-07-15 01:55:00+00:00,0155,UNK,3 NW MARANA,PIMA,AZ,32.45,-111.21,LANDSPOUT TORNADO OCCURRED IN THE VICINITY OF SANDARIO AND BARNETT ROADS. TORNADO REMAINED OVER OPEN DESERT WITH NO DAMAGE NOTED. TIME AND EXACT LOCATION ESTIMATED BASE (TWC)
2015-10-20 20:00:00+00:00,2000,UNK,5 W CORNFIELDS,APACHE,AZ,35.65,-109.77,PHOTO CONFIRMATION OF A TORNADO WAS RECEIVED VIA EMERGENCY MANAGEMENT AND LAW ENFORCEMENT. NO PROPERTY DAMAGE OR INJURIES WERE REPORTED. (FGZ)
2015-07-31 23:30:00+00:00,2330,UNK,2 N SAFFORD,GRAHAM,AZ,32.86,-109.7,SMALL TORNADO WAS REPORTED ON TWITTER WITH PHOTOS AND VIDEO TO BE NEAR THE GILA RIVER JUST NORTH OF SAFFORD. ESTIMATED TIME OF OCCURRENCE WAS 430 TO 440 PM MST. FROM TH (TWC)
2016-07-27 22:38:00+00:00,2238,UNK,4 NE NEW KINGMAN-BUTLER,MOHAVE,AZ,35.29,-113.96,VIDEO SUBMITTED OF A LANDSPOUT TORNADO NEAR KINGMAN AIRPORT. TORNADO LASTED APPROXIMATELY TWO MINUTES. NO DAMAGE OR INJURIES REPORTED. PRELIMINARY RATING OF EF0. (VEF)
2016-06-20 23:40:00+00:00,2340,UNK,1 ESE MILEPOST 355 ON S,NAVAJO,AZ,34.11,-109.9,(FGZ)
2016-06-20 23:40:00+00:00,2340,UNK,2 SE SNOWFLAKE,NAVAJO,AZ,34.5,-110.06,(FGZ)
2017-07-29 23:00:00+00:00,2300,UNK,6 N FAIRBANK,COCHISE,AZ,31.81,-110.2,DELAYED REPORT--TORNADO. BASED ON PHOTO FROM BROADCAST MEDIA VIA TWITTER AND REVIEW OF RADAR DATA. (TWC)
2017-08-04 00:05:00+00:00,0005,UNK,3 S PHOENIX,MARICOPA,AZ,33.41,-112.07,VIDEO EVIDENCE CORROBORATED WITH TPHX DATA SUPPORT BRIEF LANDSPOUT TORNADO. (PSR)
2015-10-06 19:34:00+00:00,1934,UNK,2 SW ESTRELLA MOUNTAIN,MARICOPA,AZ,33.31,-112.46,AMENDED EVENT. LANDSPOUT REPORTED BY SPOTTERS AND EMERGENCY RESPONDERS. (PSR)
2015-02-23 19:40:00+00:00,1940,UNK,10 SSE BLACKWELLS CORNER,KERN,CA,35.48,-119.79,LANDSPOUT. EST WIDTH 50 YD. EST LENGTH 1/2 MI. EST DURATION 10 MIN. TORNADO DURATION 10 MINUTES. (HNX)
2016-01-06 21:04:00+00:00,2104,UNK,4 SSE SAN CLEMENTE,ORANGE,CA,33.39,-117.6,TORNADO SITED BY SEVERAL PEOPLE IN SOUTH SAN CLEMENTE NEAR THE ORANGE COUNTY AND SAN DIEGO COUNTY BORDER. ONE HOUSE DAMAGED. (SGX)
2016-01-06 18:25:00+00:00,1825,UNK,3 SW FILLMORE,VENTURA,CA,34.37,-118.95,A SMALL TORNADO TOUCHED DOWN IN RURAL VENTURA COUNTY NEAR THE UNINCORPORATED AREA OF BARDSDALE... CA. DAMAGE WAS NOT CONTINUOUS AND CONFINED MAINLY TO TREES AND FENCES. A (LO
2015-12-24 23:10:00+00:00,2310,UNK,2 NW EL DORADO HILLS,EL DORADO,CA,38.7,-121.1,EF1 DAMAGE HAS BEEN CONFIRMED IN EL DORADO HILLS AND CAMERON PARK. SEVERAL RESIDENCES WERE AFFECTED... WITH ROOFS DAMAGED... FENCES BLOWN OVER... AND LARGE TREES UPROOTED. ON
2015-04-21 22:55:00+00:00,2255,UNK,15 ENE EAGLE MTN,RIVERSIDE,CA,33.9,-115.22,ROTATING CLOUD TORNADO LIKE REPORTED FROM AIRCRAFT PILOT AT 347PM PDT. BROADCAST MEDIA LATER CONFIRMED TORNADO WITH PHOTOS. RADAR ANALYSIS DETERMINED THAT THUNDERSTORM (PSR)
2015-10-17 21:45:00+00:00,2145,UNK,4 ESE SUN CITY,RIVERSIDE,CA,33.69,-117.15,A LANDSPOUT TORNADO WAS OBSERVED NEAR MENIFEE AROUND 2:45 PM. VIDEO AND PHOTOS WERE PROVIDED BY THE VIEWER AND THE LOCAL CBS NEWS STATION. NO DAMAGE REPORTED. (SGX)
2015-04-21 22:55:00+00:00,2255,UNK,6 N DESERT CENTER,RIVERSIDE,CA,33.8,-115.4,REVISED REPORT... A LANDSPOUT TORNADO WAS REPORTED BY THE PUBLIC. NWS REMOTE SURVEY INDICATES THIS TORNADO HAD A STRENGTH OF EF0. (PSR)
2016-03-30 00:35:00+00:00,0035,UNK,5 S DEL MAR,SAN DIEGO,CA,32.89,-117.25,LIFEGUARDS REPORTED A WATERSPOUT 1 MILE OFFSHORE OF BLACKS BEACH AT 5:35 PM MOVING EAST AT 40 KNOTS. IT MADE LANDFALL AS A WEAK TORNADO AT 5:38 PM JUST NORTH OF THE GLI (SGX)
2017-01-11 08:01:00+00:00,0801,UNK,3 SE ARCO ARENA,SACRAMENTO,CA,38.63,-121.48,PATH LENGTH 3/8 OF MILE. SEVERAL TREES AND FENCES DOWNED. TWO METAL AWNINGS TWISTED AND TORN DOWN. NUMEROUS TREES STRIPPED OF LIMBS AND DEPOSITED IN ROADWAY. (STO)
2015-12-24 23:10:00+00:00,2310,UNK,FOLSOM,SACRAMENTO,CA,38.68,-121.15,TORNADO 4 MILES EAST OF BRIGGS RANCH DRIVE IN FOLSOM. DAMAGE AND INTENSITY UNKNOWN AT THIS TIME... WILL FOLLOW UP WITH ANOTHER LOCAL STORM REPORT. (STO)
2016-01-06 16:50:00+00:00,1650,UNK,7 N HOLLISTER,SAN BENITO,CA,36.96,-121.4,EF-0 TORNADO TOUCHED DOWN NEAR THE HIGHWAY 152-HIGHWAY 156 INTERCHANGE... APPROXIMATELY 7 MILES NORTH OF HOLLISTER. THERE WAS INTERMITTENT DAMAGE ALONG A 1 MILE PATH... INC (
2016-04-28 02:06:00+00:00,0206,UNK,2 SSE WATERFORD,STANISLAUS,CA,37.62,-120.75,POSSIBLE TORNADO OBSERVED BY PUBLIC NEAR HICKMAN ELEMENTARY SCHOOL. OBSERVERS REPORTED FUNNEL CLOUD AND A LARGE EUCALYPTUS TREE UPROOTED WITH DEBRIS IN AIR. (STO)
2015-11-15 21:54:00+00:00,2154,UNK,1 NW DENAIR,STANISLAUS,CA,37.54,-120.82,AN EF1 TORNADO TOUCHED DOWN ON THE NORTHEAST SIDE OF DENAIR CA SUNDAY AFTERNOON. THE TORNADO HAD MULTIPLE TOUCHDOWNS AND LEFT DAMAGE ALONG A 3 MILE LONG PATH. THE ORIGI (STO)
2016-04-27 22:35:00+00:00,2235,UNK,WATERFORD,STANISLAUS,CA,37.65,-120.76,POSSIBLE TORNADO. LARGE SHED MOVED OFF FOUNDATION AT ELEMENTARY SCHOOL. SHERIFF DEPUTY NOTED SOME DEBRIS FLYING THROUGH THE AIR. (STO)
2015-11-15 21:45:00+00:00,2145,UNK,2 NNW DENAIR,STANISLAUS,CA,37.56,-120.82,POSSIBLE TORNADO REPORTED BETWEEN DENAIR AND HUGHSON . TIME ESTIMATE BASED ON RADAR. (STO)
2015-12-24 22:24:00+00:00,2224,UNK,MODESTO,STANISLAUS,CA,37.66,-120.99,INVESTIGATING POSSIBLE TORNADO IN MODESTO/CERES WILL ISSUE LOCAL STORM REPORT UPDATE SOON AS POSSIBLE. (STO)
2016-04-27 22:45:00+00:00,2245,UNK,2 SSE WATERFORD,STANISLAUS,CA,37.62,-120.75,POSSIBLE TORNADO OBSERVED BY PUBLIC NEAR HICKMAN ELEMENTARY SCHOOL. OBSERVERS REPORTED FUNNEL CLOUD AND A LARGE EUCALYPTUS TREE UPROOTED WITH DEBRIS IN AIR. (STO)
2015-12-24 23:00:00+00:00,2300,UNK,1 N CERES,STANISLAUS,CA,37.62,-120.96,UPDATE TO PREVIOUS LSR: EF0 TORNADO IN CERES ESTIMATED ON THE GROUND AROUND 3:00-3:05 PM PST. DAMAGE BETWEEN DAVIS WAY AND NORTH CENTRAL AVE. TO PARK E DRIVE... AND VINEW (ST
2015-12-24 23:15:00+00:00,2315,UNK,1 N CERES,STANISLAUS,CA,37.62,-120.96,EF0 DAMAGE HAS BEEN CONFIRMED IN CERES FROM DAVIS RD TO VINEWOOD DR. A CARPORT COLLAPSED CAUSING DAMAGE TO A HOUSE. SEVERAL FENCES WERE DAMAGED AND SEVERAL TREES WERE D (STO)
2015-06-06 23:00:00+00:00,2300,UNK,PHELAN,SAN BERNARDINO,CA,34.43,-117.57,A LANDSPOUT TORNADO WAS REPORTED WITH PHOTOGRAPH FROM A FIREFIGHTER IN PHELAN. LOCATION JUST NORTH OF PHELAN ALONG JOHNSON ROAD. NO DAMAGE REPORTED AND DURATION WAS 3 M (SGX)
2015-07-20 00:00:00+00:00,0000,UNK,3 NNE LANDERS,SAN BERNARDINO,CA,34.31,-116.37,A PHOTO CAPTURED TWO LANDSPOUTS IN AN OPEN DESERT AREA JUST NORTH OF LANDERS. NO DAMAGE WAS REPORTED. TOUCHDOWN AT BEST FOR 30 SECONDS TO A MINUTE. (VEF)
2017-05-07 20:39:00+00:00,2039,UNK,3 W APPLE VALLEY,SAN BERNARDINO,CA,34.53,-117.26,PHOTO OF A LANDSPOUT IN THE APPLE VALLEY/VICTORVILLE AREA. NO DAMAGE REPORTED. STORM ALSO PRODUCED PEA SIZE HAIL. (SGX)
2015-05-07 22:59:00+00:00,2259,UNK,18 SE WALSH,BACA,CO,37.2,-102.05,RECEIVED FROM NWS DDC (PUB)
2015-07-05 00:25:00+00:00,0025,UNK,6 E STONINGTON,BACA,CO,37.3,-102.07,(PUB)
2015-05-28 21:55:00+00:00,2155,UNK,15 S VILAS,BACA,CO,37.16,-102.45,(PUB)
2015-06-12 02:38:00+00:00,0238,UNK,9 NE SPRINGFIELD,BACA,CO,37.5,-102.5,(PUB)
2017-06-25 21:25:00+00:00,2125,UNK,2 NE WALSH,BACA,CO,37.41,-102.25,BRIEF TORNADO REPORTED BY LAW ENFORCEMENT. (PUB)
2015-06-12 01:48:00+00:00,0148,UNK,8 NW SPRINGFIELD,BACA,CO,37.49,-102.72,(PUB)
2016-04-16 00:16:00+00:00,0016,UNK,3 W WILEY,BENT,CO,38.16,-102.77,TRAINED SPOTTER NEAR CTY RD HH.5. BRIEF SIGHTING... QUICKLY RECEDED. (PUB)
2015-08-16 21:59:00+00:00,2159,UNK,GREELEY,WELD,CO,40.42,-104.74,SPOTTER IN GREELEY REPORTED A TORNADO VISIBLE A FEW MILES EAST OF TOWN. (BOU)
2016-04-12 21:02:00+00:00,2102,UNK,3 N GREELEY,WELD,CO,40.46,-104.74,SHORT LIVED WEAK LANDSPOUT (BOU)
2017-06-12 22:57:00+00:00,2257,UNK,3 SE CARPENTER,WELD,CO,41.0,-104.31,LARGE WEDGE TORNADO ON GROUND. (CYS)
2016-05-07 21:00:00+00:00,2100,UNK,5 W WIGGINS,WELD,CO,40.23,-104.17,CONFIRMED MULTI-VORTEX TORNADO OVER INTERSTATE 76 (BOU)
2015-08-16 21:59:00+00:00,2159,UNK,4 ENE KERSEY,WELD,CO,40.4,-104.49,CORRECTED APPROXIMATE LOCATION. SPOTTER IN GREELEY REPORTED A TORNADO VISIBLE EAST OF TOWN. (BOU)
2015-05-08 00:36:00+00:00,0036,UNK,3 S FORT LUPTON,WELD,CO,40.04,-104.81,POSSIBLE TOUCHDOWN OF WEAK SHORT LIVED TORNADO (BOU)
2017-06-12 22:50:00+00:00,2250,UNK,S HEREFORD,WELD,CO,40.97,-104.3,TOUCHED DOWN (BOU)
2016-07-27 22:54:00+00:00,2254,UNK,1 E NUNN,WELD,CO,40.7,-104.76,BRIEF TORNADO. TIME AND LOCATION ESTIMATED. (BOU)
2015-07-21 21:42:00+00:00,2142,UNK,6 N BRIGGSDALE,WELD,CO,40.72,-104.32,VERY BRIEF TOUCHDOWN (BOU)
2016-05-08 00:16:00+00:00,0016,UNK,7 N WRAY,YUMA,CO,40.18,-102.23,TWO TORNADOES ROUGHLY 7 MILES NORTH OF WRAY. SECOND TORNADO LASTED 2 MINUTES THEN BOTH TORNADOES LIFTED AT SAME TIME. (GLD)
2016-05-08 00:10:00+00:00,0010,UNK,2 N WRAY,YUMA,CO,40.11,-102.23,TORNADO FLIPPED TRACTORS AND DESTROYED OUTBUILDINGS. (GLD)
2016-05-07 22:14:00+00:00,2214,UNK,4 N HEARTSTRONG,YUMA,CO,40.01,-102.58,BRIEF TORNADO. (GLD)
2016-05-07 23:01:00+00:00,2301,UNK,7 NNE ECKLEY,YUMA,CO,40.21,-102.44,(GLD)
2016-05-08 00:34:00+00:00,0034,UNK,N WRAY,YUMA,CO,40.08,-102.23,MOBILE HOME DESTROYED AN UNKNOWN DISTANCE NORTH OF WRAY. (GLD)
2017-05-25 21:35:00+00:00,2135,UNK,5 N BONNY RESERVOIR,YUMA,CO,39.69,-102.17,LASTED ROUGHLY 5 MINUTES. (GLD)
2015-05-27 19:10:00+00:00,1910,UNK,4 NW WAUNETA,YUMA,CO,40.33,-102.3,(GLD)
2016-05-08 00:05:00+00:00,0005,UNK,N WRAY,YUMA,CO,40.08,-102.23,CONTINUING ON NORTHEAST FROM TOWN. (GLD)
2015-04-17 21:18:00+00:00,2118,UNK,1 SW YUMA,YUMA,CO,40.11,-102.74,WEAK...SHORT-LIVED LANDSPOUT TORNADO. SPOTTER WAS 3 MILES WEST OF YUMA NEAR HIGHWAY 34...TORNADO WAS AROUND 1-2 MILES SOUTHEAST OF SPOTTERS POSITION. TORNADO LASTED A M (GLD)
2017-05-27 00:45:00+00:00,0045,UNK,7 WSW BONNY RESERVOIR,YUMA,CO,39.58,-102.29,TORNADO OBSERVED BY NWS EMPLOYEE AS HE WAS TRAVELING NORTHWEST OF GOODLAND LOOKING TO THE WEST. LOCATION OF TORNADO ESTIMATED BY RADAR. (GLD)
2016-05-07 23:54:00+00:00,2354,UNK,N WRAY,YUMA,CO,40.08,-102.23,ON NORTH SIDE OF TOWN. (GLD)
2016-05-07 23:41:00+00:00,2341,UNK,3 S WRAY,YUMA,CO,40.04,-102.23,STRAIGHT SOUTH OF WRAY. (GLD)
2016-05-25 01:40:00+00:00,0140,UNK,8 N YUMA,YUMA,CO,40.23,-102.72,WASHINGTON COUNTY EMERGENCY MANAGER CALLED IN A TORNADO ON THE GROUND AT RD 46 AND FF. (GLD)
2016-05-07 23:36:00+00:00,2336,UNK,4 SSW WRAY,YUMA,CO,40.03,-102.25,LIFTED AFTER TWO MINUTES. (GLD)
2015-04-18 19:40:00+00:00,1940,UNK,6 S YUMA,YUMA,CO,40.04,-102.72,TORNADO REPORTED ON GROUND BY SPOTTER (BOU)
2015-04-17 23:47:00+00:00,2347,UNK,5 ESE CLARKVILLE,YUMA,CO,40.34,-102.53,STORM PRODUCED A ROPE TORNADO ON THE GROUND FOR SEVERAL MINUTES. (GLD)
2016-07-03 00:31:00+00:00,0031,UNK,1 S BENNETT,ADAMS,CO,39.74,-104.42,BRIEF WEAK TORNADO IN OPEN FIELD. NO DAMAGE REPORTED. (BOU)
2016-05-24 23:48:00+00:00,2348,UNK,10 NW LAST CHANCE,ADAMS,CO,39.83,-103.71,(BOU)
2015-08-17 22:35:00+00:00,2235,UNK,8 WNW LAST CHANCE,ADAMS,CO,39.77,-103.72,WEAK TORNADO ON GROUND FOR APPROXIMATELY 1 MINUTE IN OPEN FIELD. NO DAMAGE REPORTED. (BOU)
2015-05-15 20:03:00+00:00,2003,UNK,4 WSW HOYT,ADAMS,CO,40.0,-104.14,(BOU)
2016-04-15 20:25:00+00:00,2025,UNK,EADS,KIOWA,CO,38.48,-102.78,(PUB)
2016-05-27 20:55:00+00:00,2055,UNK,1 ESE TOWNER,KIOWA,CO,38.47,-102.05,(PUB)
2016-05-27 21:04:00+00:00,2104,UNK,1 N TOWNER,KIOWA,CO,38.48,-102.08,(PUB)
2016-04-15 20:09:00+00:00,2009,UNK,6 W NEEGRONDA RESERVOIR,KIOWA,CO,38.29,-102.85,(PUB)
2016-07-15 20:55:00+00:00,2055,UNK,4 E SHERIDAN LAKE,KIOWA,CO,38.47,-102.22,WINDOWS BLOWN OUT ON HOUSE. TRUCK WAS MOVED INTO A DITCH. (PUB)
2015-05-09 22:27:00+00:00,2227,UNK,6 SE EADS,KIOWA,CO,38.43,-102.69,(PUB)
2016-05-27 20:43:00+00:00,2043,UNK,5 N TOWNER,KIOWA,CO,38.54,-102.08,BRIEF TOUCHDOWN OBSERVED BY LAW ENFORCEMENT. (PUB)
2016-05-30 20:18:00+00:00,2018,UNK,6 W PEETZ,LOGAN,CO,40.96,-103.23,TORNADO ON GROUND FOR APPROXIMATELY 13 MINUTES FROM 218PM THROUGH 231PM. INITIAL TOUCHDOWN WAS 7 WNW OF PEETZ AND LIFTED 6 WSW OF PEETZ. REPORTS OF DAMAGE TO A FARM WOR (BOU)
2017-05-25 19:05:00+00:00,1905,UNK,5 S ATWOOD,LOGAN,CO,40.48,-103.27,WEAK TORNADO. BRIEF TOUCHDOWN IN OPEN FIELD. NO DAMAGE REPORTED. (BOU)
2017-05-18 20:30:00+00:00,2030,UNK,8 NE DELHI,OTERO,CO,37.7,-103.91,TORNADO CONFIRMED BY ADDITIONAL PHOTOS ON SOCIAL MEDIA. TIME OF EVENT IS ACCURATE BUT LOCATION ESTIMATED PER RADAR IMAGERY. (PUB)
2015-05-23 19:52:00+00:00,1952,UNK,5 NW LA JUNTA,OTERO,CO,38.03,-103.61,(PUB)
2015-06-24 22:48:00+00:00,2248,UNK,3 E DENVER,DENVER,CO,39.73,-104.9,TORNADO TOUCHED DOWN AROUND 448 PM IN EAST DENVER NEAR QUEBEC AND 6TH AVE. IT THEN MOVED EAST-NORTHEAST ACROSS THE LOWRY CAMPUS INTO THE WEST PART OF AURORA. THE TORNAD (BOU)
2015-06-04 23:15:00+00:00,2315,UNK,1 N SIMLA,ELBERT,CO,39.16,-104.08,MULTIPLE REPORTS OF A TORNADO ON THE GROUND. (BOU)
2015-08-17 21:17:00+00:00,2117,UNK,5 SW KIOWA,ELBERT,CO,39.29,-104.53,WEAK TORNADO ON GROUND FOR 5 MINUTES IN OPEN FIELD. NO DAMAGE REPORTED. (BOU)
2015-06-04 23:45:00+00:00,2345,UNK,1 WSW SIMLA,ELBERT,CO,39.14,-104.1,LARGE TORNADO REMAINED ON THE GROUND FROM 531-545 PM MDT. (BOU)
2015-06-05 00:34:00+00:00,0034,UNK,8 NW KUTCH,ELBERT,CO,38.98,-103.98,LARGE TORNADO ON THE GROUND SINCE 623 PM MDT (BOU)
2015-05-09 22:40:00+00:00,2240,UNK,9 WSW LIMON,ELBERT,CO,39.22,-103.84,(BOU)
2015-05-09 22:30:00+00:00,2230,UNK,10 SE SIMLA,ELBERT,CO,39.04,-103.95,(BOU)
2015-06-04 23:31:00+00:00,2331,UNK,2 WNW SIMLA,ELBERT,CO,39.15,-104.12,LARGE TORNADO ON THE GROUND. (BOU)
2015-06-05 19:08:00+00:00,1908,UNK,6 E PARKER,ELBERT,CO,39.51,-104.65,SLIGHT DAMAGE TO OUTBUILDING... ROOF... FENCING... AND TREE LIMBS. (BOU)
2016-05-07 21:26:00+00:00,2126,UNK,13 SW NEW RAYMER,MORGAN,CO,40.48,-104.0,RAIN WRAPPED TORNADO SOUTH OF HIGHWAY 14 (BOU)
2016-06-13 23:24:00+00:00,2324,UNK,12 S FORT MORGAN,MORGAN,CO,40.09,-103.79,BRIEF TORNADO REPORTED TO LAW ENFORCEMENT. (BOU)
2016-05-07 21:13:00+00:00,2113,UNK,10 N WIGGINS,MORGAN,CO,40.38,-104.07,TORNADO ON THE GROUND ON STATE ROAD 2 NEAR JACKSON LAKE (BOU)
2015-06-05 00:35:00+00:00,0035,UNK,4 NW LONGMONT,BOULDER,CO,40.21,-105.17,(BOU)
2015-05-09 21:41:00+00:00,2141,UNK,10 WSW TRUCKTON,EL PASO,CO,38.67,-104.35,TORNADO CONFIRMED ON THE GROUND. (PUB)
2015-06-05 00:04:00+00:00,0004,UNK,5 SE RAMAH,EL PASO,CO,39.07,-104.1,STILL ON GROUND (PUB)
2015-06-04 23:41:00+00:00,2341,UNK,2 E RAMAH,EL PASO,CO,39.12,-104.13,LIFTED AT APPROXIMATELY 545 PM. (PUB)
2016-06-23 19:27:00+00:00,1927,UNK,5 E CANON CITY,FREMONT,CO,38.46,-105.14,TORNADO CONFIRMED BY PUBLIC PHOTOGRAPH. . THE DURATION OF THE TORNADO EVENT WAS 3 MINUTES. (PUB)
2015-06-06 22:35:00+00:00,2235,UNK,3 S THURMAN,LINCOLN,CO,39.55,-103.22,TORNADO IN OPEN FIELD WITH NO REPORTED DAMAGE. (BOU)
2015-05-09 21:40:00+00:00,2140,UNK,2 S WILD HORSE POINT,LINCOLN,CO,38.53,-103.5,CORRECTED TIME AND LOCATION OF PREVIOUS REPORT WHICH WAS 15 SE OF KARVAL AT 420 PM. (BOU)
2015-05-09 22:15:00+00:00,2215,UNK,3 W KARVAL,LINCOLN,CO,38.73,-103.59,MINOR DAMAGE TO TREES AND A SHED (BOU)
2015-05-09 22:20:00+00:00,2220,UNK,15 SE KARVAL,LINCOLN,CO,38.58,-103.33,(BOU)
2015-05-09 22:15:00+00:00,2215,UNK,8 S KARVAL,LINCOLN,CO,38.61,-103.53,(BOU)
2015-05-24 22:15:00+00:00,2215,UNK,8 SE LAMAR,PROWERS,CO,38.0,-102.51,(PUB)
2015-05-24 22:00:00+00:00,2200,UNK,6 S LAMAR,PROWERS,CO,37.99,-102.62,(PUB)
2017-10-06 22:25:00+00:00,2225,UNK,4 WNW DEER TRAIL,ARAPAHOE,CO,39.65,-104.11,WEAK SHORT LIVED LANDSPOUT TOUCHED DOWN IN AN OPEN FIELD. IT LASTED ABOUT 30 SECONDS. (BOU)
2017-06-05 20:34:00+00:00,2034,UNK,3 SSW BENNETT,ARAPAHOE,CO,39.72,-104.44,A WEAK LANDSPOUT TOUCHED DOWN BRIEFLY AND TOSSED SOME SMALL LAWN FURNITURE. (BOU)
2015-05-09 21:01:00+00:00,2101,UNK,13 NE EADS,CHEYENNE,CO,38.62,-102.61,SPOTTER CONFIRMED TORNADO ON THE GROUND. (GLD)
2015-05-09 23:24:00+00:00,2324,UNK,6 S FIRSTVIEW,CHEYENNE,CO,38.74,-102.51,TORNADO BACK ON THE GROUND. BRIEF TORNADO LIFTED AND ANOTHER TORNADO TOUCHED DOWN IMMEDIATELY AFTERWARDS. (GLD)
2015-05-09 23:01:00+00:00,2301,UNK,13 NE EADS,CHEYENNE,CO,38.62,-102.61,SPOTTER CONFIRMED TORNADO ON THE GROUND. (GLD)
2015-05-09 23:10:00+00:00,2310,UNK,12 SSW FIRSTVIEW,CHEYENNE,CO,38.65,-102.59,TORNADO PICKED UP AND TOUCHED BACK DOWN. (GLD)
2016-07-15 20:19:00+00:00,2019,UNK,7 SE CHEYENNE WELLS,CHEYENNE,CO,38.76,-102.24,(GLD)
2016-05-26 23:23:00+00:00,2323,UNK,1 N FIRSTVIEW,CHEYENNE,CO,38.83,-102.53,(GLD)
2016-09-17 22:07:00+00:00,2207,UNK,4 E CHEYENNE WELLS,CHEYENNE,CO,38.82,-102.28,LANDSPOUT 4-5 MILES EAST OF CHEYENNE WELLS ON HIGHWAY 40. (GLD)
2016-05-26 23:05:00+00:00,2305,UNK,8 SSE KIT CARSON,CHEYENNE,CO,38.65,-102.74,(GLD)
2015-05-09 23:20:00+00:00,2320,UNK,5 SE KIT CARSON,CHEYENNE,CO,38.72,-102.72,TORNADO ON THE GROUND. (GLD)
2015-05-09 23:35:00+00:00,2335,UNK,2 SSE FIRSTVIEW,CHEYENNE,CO,38.79,-102.52,TORNADO ON THE GROUND INTERMITTENTLY. (GLD)
2016-09-17 21:50:00+00:00,2150,UNK,N CHEYENNE WELLS,CHEYENNE,CO,38.82,-102.35,TWO LANDSPOUTS SEEN... ONE ON THE NORTH EDGE OF CHEYENNE WELLS AND ANOTHER ROUGHLY 2N OF TOWN. HAVE LASTED 5 MINUTES SO FAR. (GLD)
2016-07-15 20:08:00+00:00,2008,UNK,5 S ARAPAHOE,CHEYENNE,CO,38.78,-102.16,(GLD)
2015-04-03 01:02:00+00:00,0102,UNK,6 SE ARAPAHOE,CHEYENNE,CO,38.79,-102.09,(GLD)
2016-06-27 23:30:00+00:00,2330,UNK,PAOLI,PHILLIPS,CO,40.61,-102.47,BRIEF WEAK TOUCHDOWN (BOU)
2015-04-23 23:51:00+00:00,2351,UNK,3 NE HAXTUN,PHILLIPS,CO,40.67,-102.59,(BOU)
2016-06-05 22:30:00+00:00,2230,UNK,5 N MOFFAT,SAGUACHE,CO,38.07,-105.9,LANDSPOUT TORNADO CONFIRMED BY PHOTO. LOCATION IS ESTIMATED. (PUB)
2016-06-27 22:40:00+00:00,2240,UNK,8 SE JULESBURG,SEDGWICK,CO,40.9,-102.16,BRIEF TORNADO IN OPEN RANGELAND (BOU)
2016-06-27 20:51:00+00:00,2051,UNK,16 S FLAGLER,KIT CARSON,CO,39.06,-103.07,LANDSPOUT THAT LASTED TWO MINUTES. (GLD)
2016-07-01 01:08:00+00:00,0108,UNK,13 NW BETHUNE,KIT CARSON,CO,39.44,-102.6,INDIVIDUAL WAS AT COUNTY ROADS 40 AND HH LOOKING NORTH. REPORT RELAYED THROUGH LAW ENFORCEMENT. (GLD)
2016-05-27 00:10:00+00:00,0010,UNK,2 W BURLINGTON,KIT CARSON,CO,39.31,-102.31,(GLD)
2015-06-05 23:45:00+00:00,2345,UNK,9 S KIRK,KIT CARSON,CO,39.49,-102.6,LARGE TORNADO CROSSED THE ROAD ONE MILE IN FRONT OF CHASER. (GLD)
2015-06-05 23:20:00+00:00,2320,UNK,9 N VONA,KIT CARSON,CO,39.43,-102.74,LARGE CONE TORANDO OBSERVED NORTH OF VONA. LOCATION ESTIMATED BY RADAR. (GLD)
2015-05-28 21:44:00+00:00,2144,UNK,10 S STRATTON,KIT CARSON,CO,39.16,-102.6,TORNADO ON GROUND FOR 5 MINUTES... HEADING DUE EAST (GLD)
2016-05-26 23:27:00+00:00,2327,UNK,1 N SEIBERT,KIT CARSON,CO,39.31,-102.87,(GLD)
2016-06-13 19:45:00+00:00,1945,UNK,10 S MODEL,LAS ANIMAS,CO,37.19,-104.21,. (PUB)
2015-05-28 20:41:00+00:00,2041,UNK,6 S KIM,LAS ANIMAS,CO,37.16,-103.35,(PUB)
2017-05-10 19:30:00+00:00,1930,UNK,12 N TRINCHERA,LAS ANIMAS,CO,37.22,-104.0,TORNADO CONFIRMED VIA PHOTOS ON SOCIAL MEDIA. LOCATION ESTIMATED. (PUB)
2016-06-13 19:58:00+00:00,1958,UNK,11 SSE MODEL,LAS ANIMAS,CO,37.19,-104.18,TORNADO ROPING OUT. (PUB)
2016-05-24 23:44:00+00:00,2344,UNK,S AKRON,WASHINGTON,CO,40.16,-103.21,(BOU)
2016-05-25 00:44:00+00:00,0044,UNK,S AKRON,WASHINGTON,CO,40.16,-103.21,(BOU)
2017-08-12 23:30:00+00:00,2330,UNK,5 SE ANTON,WASHINGTON,CO,39.7,-103.15,(BOU)
2017-05-26 22:20:00+00:00,2220,UNK,5 SSE WOODROW,WASHINGTON,CO,39.91,-103.54,NO FUNNEL SEEN... BUT SAW ROTATION ON THE GROUND CORRESPONDING TO ROTATION IN THE MESO. (BOU)
2017-08-12 23:10:00+00:00,2310,UNK,7 WNW ARICKAREE SCHOOL,WASHINGTON,CO,39.78,-103.15,BRIEF LAND SPOT (BOU)
2016-09-02 22:05:00+00:00,2205,UNK,7 NE OTIS,WASHINGTON,CO,40.22,-102.87,(BOU)
2017-08-12 23:27:00+00:00,2327,UNK,1 NW ARICKAREE SCHOOL,WASHINGTON,CO,39.76,-103.04,(BOU)
2017-08-12 23:30:00+00:00,2330,UNK,SE ANTON,WASHINGTON,CO,39.75,-103.22,(BOU)
2015-04-18 19:40:00+00:00,1940,UNK,1 S BURDETT,WASHINGTON,CO,40.35,-102.95,TORNADO REPORTED ON GROUND BY SPOTTER (BOU)
2017-06-08 00:28:00+00:00,0028,UNK,9 WNW ELBA,WASHINGTON,CO,39.95,-103.34,TORNADO TOUCHED DOWN IN OPEN COUNTRY... NO DAMAGE REPORTED. (BOU)
2015-06-05 23:01:00+00:00,2301,UNK,4 SSW ARICKAREE SCHOOL,WASHINGTON,CO,39.69,-103.06,LARGE CONE TORNADO ON GROUND PERSISTED FOR 7 MINUTES BEFORE BECOMING RAIN WRAPPED. (BOU)
2017-05-26 23:15:00+00:00,2315,UNK,15 S OTIS,WASHINGTON,CO,39.93,-102.96,BRIEF TORNADO ON GROUND FOR 30 SECONDS (BOU)
2017-08-12 23:45:00+00:00,2345,UNK,7 SE ANTON,WASHINGTON,CO,39.68,-103.13,(BOU)
2015-04-18 19:40:00+00:00,1940,UNK,8 SW YUMA,WASHINGTON,CO,40.04,-102.83,TORNADO ON THE GROUND REPORTED BY W-Y COMMS FROM LAW ENFORCEMENT THROUGH NAWAS (BOU)
2017-05-26 22:20:00+00:00,2220,UNK,3 NNE LAST CHANCE,WASHINGTON,CO,39.77,-103.56,NO FUNNEL SEEN... BUT SAW ROTATION ON THE GROUND CORRESPONDING TO ROTATION IN THE MESO. (BOU)
2017-05-26 23:15:00+00:00,2315,UNK,8 N ARICKAREE SCHOOL,WASHINGTON,CO,39.86,-103.03,BRIEF TORNADO ON GROUND FOR 30 SECONDS (BOU)
2017-04-06 17:41:00+00:00,1741,UNK,BOLLING AIR FORCE BASE,DISTRICT OF COLUM,DC,38.84,-77.02,*** 1 INJ *** EF-0 TORNADO. MAX WINDS 75 MPH. PATH LENGTH 2.2 MILES...MAX WIDTH 25 YARDS. SEVERAL TREES SNAPPED OR UPROOTED...ROOF BLOWN OFF APARTMENT BUILDING. (LWX)
2017-06-19 22:15:00+00:00,2215,UNK,GREENWOOD,SUSSEX,DE,38.81,-75.59,EF-0 TORNADO WITH WINDS OF 85 MPH CONFIRMED NEAR GREENWOOD WITH AN ESTIMATED PATH LENGTH OF 0.6 MILES AND A PATH WIDTH OF 200 YARDS. (PHI)
2015-07-09 23:50:00+00:00,2350,UNK,MINQUADALE,NEW CASTLE,DE,39.71,-75.57,EF-0 TORNADO WITH MAXIMUM WINDS OF 65 MPH CONFIRMED IN MINQUADALE. SEVERAL BUILDINGS DAMAGED. (PHI)
2016-06-06 20:00:00+00:00,2000,UNK,1 SW ESTERO,LEE,FL,26.46,-81.83,TRAINED SPOTTER REPORT OF WATERSPOUT MOVING ONSHORE NEAR ESTERO AND BONITA BEACH. AFTER LANDFALL BECAME RAIN WRAPPED AND COULDNT TELL IF WAS STILL ON GROUND. (TBW)
2016-01-09 23:45:00+00:00,2345,UNK,SW CAPE CORAL,LEE,FL,26.58,-81.99,EMERGENCY MANAGER REPORTED MULTIPLE TREES AND POWER LINES DOWN AS WELL AS STRUCTURAL DAMAGE TO SEVERAL HOMES. LOCATED IN SW CAPE CORAL NEAR THE INTERSECTION OF CHIQUITA (TBW)
2016-01-15 16:10:00+00:00,1610,UNK,5 ESE CAPE CORAL,LEE,FL,26.55,-81.91,BROADCAST MEDIA RELAYED A REPORT AND A PICTURE OF A ROOF PARTIALLY BLOWN OFF A CONDO ON FEATHER SOUND DRIVE IN THE WHISKEY CREEK AREA AS WELL AS DAMAGE TO PLAM TREES. T (TBW)
2017-04-06 14:19:00+00:00,1419,UNK,5 SSE CAPE CORAL,LEE,FL,26.51,-81.95,CORRECTED SOURCE OF REPORT. A EF-0 TORNADO/WATERSPOUT MOVED FROM THE SOUTHERN PART OF PINE ISLAND AT 1019 AM TO LAKES REGIONAL PARK IN FORT MYERS AT 1040 AM. TIME BASED (TBW)
2015-08-08 19:19:00+00:00,1919,UNK,1 W INDIAN PASS,GULF,FL,29.69,-85.28,BRIEF WEAK TORNADO DOWNED SOME TREE LIMBS AND SNAPPED A PINE TREE BEFORE MOVING OFFSHORE. (TAE)
2015-04-19 16:51:00+00:00,1651,UNK,5 NNW TALLAHASSEE,LEON,FL,30.5,-84.31,SURVEY CONFIRMS EF1 TORNADO WITH MAX WINDS ESTIMATED NEAR 95 MPH FROM 30.4981...-84.3136 AT 1251 PM EDT TO 30.5443...-84.2574 AT 1259 PM EDT. SPORADIC TREE DAMAGE ALONG A W (
2017-07-27 17:38:00+00:00,1738,UNK,1 NNE MAYPORT,DUVAL,FL,30.41,-81.4,AN EF-0 TORNADO BRIEFLY TOUCHED DOWN AT HUGUENOT PARK BEACH FROM 0138 PM TO 0141 PM EDT. ESTIMATED WINDS OF 65 MPH AND A PATH LENGTH OF 0.1 MILES AND WIDTH OF 40 YARDS. (JAX)
2015-04-25 21:52:00+00:00,2152,UNK,4 SW ARLINGTON,DUVAL,FL,30.29,-81.65,AN EF-1 TORNADO WITH MAXIMUM WINDS OF 104 MPH AND A PATH WIDTH OF 300 YARDS DEVELOPED ALONG THE EASTERN SHORE OF THE ST. JOHNS RIVER AND MOVED ESE THROUGH THE SOUTHSIDE (JAX)
2016-06-06 19:25:00+00:00,1925,UNK,4 W NORMANDY,DUVAL,FL,30.3,-81.83,NWS STORM SURVEY HAS DETERMINED THAT A TORNADO OCCURRED AROUND THE CRYSTAL SPRINGS ROAD AND BLAIR ROAD AREA. EF SCALE HAS NOT BEEN DETERMINED AT THIS TIME. (JAX)
2017-09-11 05:15:00+00:00,0515,UNK,1 SSE CRESCENT BEACH,AMZ454,FL,29.72,-81.23,THIS TORNADO CAUSED DAMAGE ON THE SOUTHERN END OF CRESCENT BEACH AT THE SUMMER HOUSE HOMES. CONSIDERABLE STRUCTURAL DAMAGE OCCURRED WITH THE REMOVAL OF MULTIPLE ROOFS A (JAX)
2016-02-24 18:37:00+00:00,1837,UNK,3 N HARBOUR HEIGHTS,DESOTO,FL,27.04,-82.01,TRAINED SPOTTER REPORTED A TORNADO. (TBW)
2016-02-16 09:49:00+00:00,0949,UNK,1 SSW MOORE HAVEN,GLADES,FL,26.82,-81.11,SEVERAL MOBILE HOMES SIGNIFICANTLY DAMAGED. DAMAGE TO A TRAILER AND ITS TENT TWISTED ON TOP. ROOF DAMAGE TO A HOUSE ALONG WESTERN AVE WAS REPORTED AS WELL AS TREES AND (MFL)
2017-09-14 13:22:00+00:00,1322,UNK,1 NW BUCKHEAD RIDGE,GLADES,FL,27.15,-80.9,AT 922AM. RECEIVED EMAIL FROM GLADES COUNTY EM THAT LANDSPOUT TORNADO TOUCHED DOWN IN THE VICINITY OF BUCKHEAD RIDGE. (MFL)
2017-09-10 13:00:00+00:00,1300,UNK,N WAUCHULA,HARDEE,FL,27.55,-81.81,REPORT OF ROOF DAMAGE TO BUSINESS IN WAUCHULA (TBW)
2015-08-14 19:18:00+00:00,1918,UNK,1 NE HARLEM,HENDRY,FL,26.74,-80.94,HENDRY COUNTY SHERIFFS OFFICE REPORTED A BRIEF TORNADO...WITH MINOR DAMAGE... NEAR GEORGIA AVENUE AND 7TH STREET IN CLEWISTON. DAMAGE WAS REPORTED TO A SHED ROOF AND NE (MFL)
2015-04-20 19:31:00+00:00,1931,UNK,11 SW OCALA,MARION,FL,29.07,-82.25,AN EF-1 TORNADO WITH WINDS 70-90 MPH AND APPROX. 1000 FT WIDE... DAMAGED TREES AND HOMES IN THE PALM CAY SUBDIVISION OFF OF STATE ROAD 200 SOUTH OF OCALA. (JAX)
2016-07-24 01:00:00+00:00,0100,UNK,11 SSW SANTOS,MARION,FL,28.97,-82.18,TREES WERE BLOWN DOWN ALONG SW 36TH AVENUE ROAD IN THE MARION OAKS AREA. THE TIME OF DAMAGE WAS BASED ON RADAR. A MARION COUNTY EMERGENCY MANAGEMENT STORM SURVEY AND RE (JAX)
2016-01-17 12:13:00+00:00,1213,UNK,2 NNW HOBE SOUND,MARTIN,FL,27.09,-80.15,TORNADO TOUCHED DOWN AS EF-1 NEAR U.S. 1 AND MOVED RAPIDLY NORTHEAST... WEAKENING TO AN EF-0 BEFORE LIFTING OVER INTRACOASTAL WATERWAY NEAR SE PALM STREET AT 715 AM EST. (MLB
2016-08-04 18:05:00+00:00,1805,UNK,5 SSW ST. MARYS,NASSAU,FL,30.63,-81.56,NASSAU COUNTY EMERGENCY MANAGEMENT REPORTS A LARGE TREE DOWNED ALONG GENE LASSERE ROAD THAT IS OBSTRUCTING THE ROADWAY IN BOTH DIRECTIONS...ALONG WITH WATER COMPLETELY (JAX)
2016-08-04 18:00:00+00:00,1800,UNK,2 SSE YULEE,NASSAU,FL,30.61,-81.56,NASSAU COUNTY EMERGENCY MANAGEMENT REPORTS TORNADO DAMAGE TO A RESIDENCE ALONG MEADOWOOD DRIVE. (JAX)
2017-09-11 06:30:00+00:00,0630,UNK,2 NNE FERNANDINA BEACH,NASSAU,FL,30.69,-81.43,THIS WEAK TORNADO TOUCHED DOWN ON THE NORTHERN END OF AMELIA ISLAND AND TRACKED WESTWARD THROUGH MARSH AREAS. DAMAGE WAS LIMITED TO TREES AND SHRUBS WITH A CLEAR TORNAD (JAX)
2016-08-04 17:50:00+00:00,1750,UNK,3 S YULEE,NASSAU,FL,30.59,-81.57,NASSAU COUNTY EMERGENCY MANAGEMENT REPORTS TORNADO DAMAGE NEAR THE INTERSECTION OF BLACKMON ROAD AND ANGIE ROAD...WITH APPROXIMATELY 100 TREES DOWNED. TIME OF DAMAGE BA (JAX)
2017-09-11 06:25:00+00:00,0625,UNK,2 NNE FERNANDINA BEACH,NASSAU,FL,30.69,-81.43,THIS WEAK TORNADO TOUCHED DOWN ON THE NORTHERN END OF AMELIA ISLAND AND TRACKED WESTWARD THROUGH MARSH AREAS. DAMAGE WAS LIMITED TO TREES AND SHRUBS WITH A CLEAR TORNAD (JAX)
2016-08-04 17:40:00+00:00,1740,UNK,1 SE YULEE,NASSAU,FL,30.62,-81.56,PRELIMINARY STORM SURVEY RESULTS FOUND AN EF1 TORNADO WITH MAXIMUM WINDS OF 90 TO 100 MPH. IT STARTED AT APPROXIMATELY 140 PM AND LIFTED AT APPROXIMATELY 157 PM. MAXIMU (JAX)
2017-07-08 00:00:00+00:00,0000,UNK,2 SW ORLANDO INTERNATIO,ORANGE,FL,28.4,-81.35,AIR TRAFFIC CONTROL TOWER REPORTS A BRIEF TORNADO TOUCHDOWN THAT QUICKLY DISSIPATED. NO DAMAGE WAS REPORTED. (MLB)
2017-07-08 00:30:00+00:00,0030,UNK,6 ENE BUENA VENTURA LAK,ORANGE,FL,28.38,-81.28,EMERGENCY MANAGER REPORTS A BRIEF TOUCHDOWN OF A TORNADO AT 417 AND LAKE NONA BLVD (MLB)
2016-09-02 00:07:00+00:00,0007,UNK,6 WNW STEINHATCHEE,TAYLOR,FL,29.71,-83.47,MEDIA REPORT ON TWITTER THAT A TAYLOR COUNTY DEPUTY REPORTED A TORNADO NEAR STEINHATCHEE WITH NO DAMAGE (TAE)
2016-09-02 00:36:00+00:00,0036,UNK,5 ENE ADAMS BEACH,TAYLOR,FL,29.91,-83.56,MEDIA REPORT ON TWITTER THAT A TAYLOR COUNTY DEPUTY REPORTED A TORNADO NEAR KEATON BEACH WITH NO DAMAGE (TAE)
2016-09-02 02:39:00+00:00,0239,UNK,1 SSW SALEM,TAYLOR,FL,29.87,-83.42,A STORM CHASER REPORTED A TORNADO ON THE GROUND WITH POWER FLASHES VISIBLE IN RURAL TAYLOR COUNTY (TAE)
2015-11-18 17:35:00+00:00,1735,UNK,10 SSE DEERLAND,WALTON,FL,30.63,-86.35,BRIEF TORNADO CONFIRMED BY DUAL POL RADAR DATA. (TAE)
2015-11-18 18:05:00+00:00,1805,UNK,1 W LIBERTY HILL,WALTON,FL,30.82,-86.23,VISUAL CONFIRMATION OF TORNADO ON HIGHWAY 331 NORTH OF EGLIN. (TAE)
2015-04-19 13:22:00+00:00,1322,UNK,4 W BRUCE,WALTON,FL,30.48,-86.03,SHORT EF0 TORNADO PATH CONFIRMED BY NWS DUAL POL RADAR DEBRIS SIGNATURE IN A RURAL AREA WEST OF BRUCE. DAMAGE LIKELY CONFINED TO TREES. ESTIMATED DURATION 3 MINUTES. PA (TAE)
2016-09-13 17:58:00+00:00,1758,UNK,1 WNW BAREFOOT BAY,BREVARD,FL,27.89,-80.53,PRIVATE METEOROLOGIST REPORTS TORNADO WEST OF BAREFOOT BAY. (MLB)
2017-09-10 15:00:00+00:00,1500,UNK,4 SSW INDIALANTIC,BREVARD,FL,28.03,-80.58,UPDATED EARLIER REPORT. BASED ON DAMAGE PHOTOS AND VIDEO ON WORTH COURT IN PALM BAY... NWS CONFIRMS DAMAGE WAS CAUSED BY A TORNADO OF AT LEAST EF0 STRENGTH - AT LEAST 6 (MLB)
2016-09-13 17:52:00+00:00,1752,UNK,1 SW BAREFOOT BAY,BREVARD,FL,27.88,-80.53,TORNADO REPORTED SOUTHWEST OF MICCO ROAD EAST OF INTERSTATE 95. (MLB)
2017-06-05 23:07:00+00:00,2307,UNK,2 NE PEMBROKE PINES,BROWARD,FL,26.03,-80.31,PUBLIC POSTED A VIDEO OF A TORNADO IN THE AREA OF SHERIDAN ST AND FLAMINGO RD. VIDEO RELAYED BY MEDIA. TIME ESTIMATED BY RADAR. (MFL)
2015-05-25 16:00:00+00:00,1600,UNK,FORT LAUDERDALE BEACH,BROWARD,FL,26.13,-80.11,*** 3 INJ *** FIRE RESCUE AND VIDEO REPORT CONFIRMED A WATERSPOUT CAME ONSHORE FORT LAUDERDALE BEACH AROUND 1200 PM EDT. INFLATABLE BOUNCE-HOUSE WAS LIFTED INTO THE AIR (MFL)
2017-03-14 05:27:00+00:00,0527,UNK,2 WNW PLANTATION,BROWARD,FL,26.13,-80.28,EF-1 DAMAGE CONFIRMED BY NWS SURVEY CREW. DISCONTINUOUS TRACK OF TREE DAMAGE FROM 6 WNW COOPER CITY TO 2 NW PLANTATION. PEAK WINDS ESTIMATED AT 95 MPH. TORNADO BEGAN AT (MFL)
2017-09-09 22:38:00+00:00,2238,UNK,1 SE WILTON MANORS,BROWARD,FL,26.15,-80.12,A TORNADO WAS REPORTED BY A HAM RADIO OPERATOR IN OAKLAND PARK AT 638 PM EDT (MFL)
2016-01-27 16:20:00+00:00,1620,UNK,13 NW WESTON,BROWARD,FL,26.26,-80.52,LIKELY DEBRIS SIGNATURE OBSERVED ON MIAMI DOPPLER RADAR KAMX FROM 1113 AM TO 1120 AM IN ASSOCIATION WITH ROTATING STORM IN EVERGLADES OF NORTHERN BROWARD COUNTY. (MFL)
2016-02-16 12:12:00+00:00,1212,UNK,1 S DAVIE,BROWARD,FL,26.08,-80.3,TREES AND POWER POLES DOWN ALONG CANYON MAPLE BOULEVARD. SHINGLE DAMAGE TO ROOFS. EYEWITNESS REPORTS SEEING TORNADO. (MFL)
2016-01-27 14:30:00+00:00,1430,UNK,2 SE COCONUT CREEK,BROWARD,FL,26.24,-80.17,*** 1 INJ *** REPORTS FROM MULTIPLE SOURCES OF DAMAGE FROM AN APPARENT TORNADO IN THE WYNMOOR BROWARD COLLEGE NORTH CAMPUS AREAS. A FEW CARS LIFTED AND FLIPPED OVER... (MFL)
2016-02-16 12:14:00+00:00,1214,UNK,1 S LIGHTHOUSE POINT,BROWARD,FL,26.27,-80.08,THERE WAS A POSSIBLE TORNADO IN THE LIGHTHOUSE POINT AREA. LARGE TREE LIMBS AND TREE BRANCHES DOWN. A FUNNEL CLOUD WAS OBSERVED AND THERE WERE REPORTS THAT HEAVY DECK F (MFL)
2017-09-10 18:00:00+00:00,1800,UNK,1 SE INTERSECTION I-595,BROWARD,FL,26.08,-80.16,SPOTTER REPORTS TORNADO ON THE GROUND NEAR FORT LAUDERDALE INTERNATIONAL AIRPORT AND 595 AT 200PM (MFL)
2015-09-16 22:40:00+00:00,2240,UNK,1 NE SOUTHWEST RANCHES,BROWARD,FL,26.07,-80.32,EF0 WITH WINDS ESTIMATED AT 75-80 MPH. TREE DAMAGE IN THE IMAGINATION FARMS AND IVANHOE ESTATES NEIGHBORHOODS. SOME TILE DAMAGE TO HOMES. TORNADO LIFTED NEAR GRIFFIN RO (MFL)
2016-01-27 14:35:00+00:00,1435,UNK,2 SE COCONUT CREEK,BROWARD,FL,26.25,-80.16,TREES AND POWER LINES DOWN IN INDUSTRIAL PARK AT 1700 BLOCK OF BLOUNT ROAD IN POMPANO BEACH. MEDIA REPORTS ALSO SHOW VEHICLE DAMAGE IN THIS AREA. (MFL)
2016-03-19 18:45:00+00:00,1845,UNK,1 SSE FORT LAUDERDALE B,BROWARD,FL,26.11,-80.1,TORNADO TOUCHED DOWN RIGHT ON FORT LAUDERDALE BEACH AT THE 600 BLOCK OF SEABREEZE BLVD. A FEW SMALL BOATS ON THE BEACH WERE OVERTURNED... SOME CHAIRS WERE FLIPPED... AN (MFL)
2017-10-24 19:15:00+00:00,1915,UNK,5 WNW WESTON,BROWARD,FL,26.14,-80.46,UPDATED REPORT... IT HAS BEEN DETERMINED THAT A BRIEF TORNADO DID OCCUR IN WESTERN BROWARD COUNTY WEST OF THE CITY OF WESTON. THERE WERE MULTIPLE PHOTOS AND VIDEO OF TH (MFL)
2015-09-29 14:05:00+00:00,1405,UNK,1 NNW PELICAN BAY,COLLIER,FL,26.25,-81.82,VIDEO OBTAINED VIA SOCIAL MEDIA DEPICTS WATERSPOUT COMING ASHORE NEAR THE WINDSOR CONDOMINUMS OFF BAY COLONY DRIVE. SEVERAL BRANCHES AND OTHER DEBRIS SEEN FLYING BEFORE (MFL)
2016-02-16 10:10:00+00:00,1010,UNK,9 E MILES CITY,COLLIER,FL,26.17,-81.19,FHP OFFICER HEADED EASTBOUND ON I-75 REPORTED A TORNADO TOUCHDOWN NORTH OF THE HIGHWAY AROUND MILE MARKER 70 AT 510AM. THE OFFICER LOST SITE OF THE TORNADO AT MILE MARK (MFL)
2017-11-22 21:40:00+00:00,2140,UNK,6 W IMMOKALEE,COLLIER,FL,26.42,-81.53,COLLIER COUNTY SHERIFFS OFFICE REPORTED THAT A DEPUTY AIRBORNE IN A HELICPTER REPORTED A FUNNEL CLOUD AT 440PM IN THE CORKSCREW AREA. TWO VIDEOS ON SOCIAL MEDIA ORIGINA (MFL)
2017-09-11 00:20:00+00:00,0020,UNK,1 SSE MARINELAND,FLAGLER,FL,29.65,-81.21,THIS TORNADO TOUCHED DOWN IN NORTHERN FLAGLER COUNTY JUST SOUTH OF MARINELAND. DAMAGE WAS LIMITED TO TREES WITH A TORNADIC DEBRIS SIGNATURE NOTED ON KJAX RADAR. THE TOR (JAX)
2015-04-19 14:52:00+00:00,1452,UNK,2 WNW ELLAVILLE,JACKSON,FL,30.98,-85.41,NWS SURVEY DETERMINES EF1 TORNADO WITH DAMAGE PATH FROM 30.98 -85.41 AT 952 AM CDT TO 31.16 -85.16 NEAR PANSEY ALABAMA AT 1010 AM CDT. THIS TORNADO BEGAN ABOUT A MILE S (TAE)
2016-02-16 02:00:00+00:00,0200,UNK,SW MARIANNA,JACKSON,FL,30.77,-85.24,POSSIBLE TORNADO TOUCHDOWN BUT NO DAMAGE EXCEPT FOR TREES DOWN IN A FIELD. (TAE)
2016-07-11 23:00:00+00:00,2300,UNK,1 N DUETTE,MANATEE,FL,27.6,-82.12,CONFIRMED TORNADO NEAR DUETTE. NO REPORTED DAMAGE. LOCATION IS ESTIMATED AND MAY NEED TO BE UPDATED. (TBW)
2016-02-24 17:27:00+00:00,1727,UNK,6 SW DUETTE,MANATEE,FL,27.54,-82.2,LATE REPORT VIA PUBLIC. RECEIVED NUMEROUS PICTURES OF SNAPPED TREES ALONG THE PATH. TRACK IS APPROXIMATELY 8 MILES LONG. TIMES ESTIMATED OFF OF THE REPORT AND RADAR. (TBW)
2015-10-11 13:45:00+00:00,1345,UNK,6 NNW PALMETTO,MANATEE,FL,27.59,-82.63,A WATERSPOUT CAME ASHORE WEST OF TERRA CEIA... ALONG THE NORTHWESTWARD JUTTING PENINSULA THAT ATTACHES THE SKYWAY BRIDGE TO THE MAINLAND. THE TORNADO THEN TRAVELED SOUTHE (TB
2016-01-17 08:45:00+00:00,0845,UNK,3 N DUETTE,MANATEE,FL,27.63,-82.13,*** 1 INJ *** MANATEE COUNTY 911 REPORTS STRUCTURE COLLAPSE IN DUETTE WITH AN UNKNOWN NUMBER OF INJURIES OF VARYING DEGREES. TIME ESTIMATED FROM RADAR. (TBW)
2017-08-27 01:21:00+00:00,0121,UNK,2 ESE BRADENTON,MANATEE,FL,27.48,-82.55,REPORT FROM LAST EVENING. DAMAGE AT A MANATEE COUNTY PUBLIC WORKS FACILITY. ALUMINUM DEBRIS AND TREES AND BRANCHES DOWNED. (TBW)
2017-07-08 00:30:00+00:00,0030,UNK,BUENA VENTURA LAKES,OSCEOLA,FL,28.34,-81.35,EMERGENCY MANAGER REPORTS A BRIEF TOUCHDOWN OF A TORNADO (MLB)
2017-02-08 03:00:00+00:00,0300,UNK,LAWTEY,BRADFORD,FL,30.05,-82.07,AN OFFICIAL NWS SURVEY FOUND THAT A TORNADO TOUCHED DOWN IN LAWTEY. AN ELEMENTARY SCHOOL CAFETERIA HAD ROOF DAMAGE. THERE WERE NUMEROUS TREES AND POWERLINES DOWN. (JAX)
2015-09-12 17:30:00+00:00,1730,UNK,4 NW STARKE,BRADFORD,FL,29.98,-82.16,PRELIMINARY SURVEY INDICATES EF0 TORNADO TOUCHDOWN 4 MILES NORTHWEST OF STARKE. MAXIMUM WINDS...85 MPH. TIME...BETWEEN 130 AND 145 PM. PATHLENGTH...1 MILE. MAXIMUM WIDT (JAX)
2015-09-12 17:30:00+00:00,1730,UNK,4 SSW SAMPSON,BRADFORD,FL,29.86,-82.24,PRELIMINARY SURVEY INDICATES EF0 TORNADO TOUCHDOWN 4 MILES SOUTH SOUTHWEST OF SAMPSON. MAXIMUM WINDS...85 MPH. TIME...BETWEEN 130 AND 145 PM. PATH LENGTH...ABOUT 1 MILE (JAX)
2016-02-24 02:00:00+00:00,0200,UNK,2 ESE BRENT,ESCAMBIA,FL,30.46,-87.2,DUNWOODY DRIVE...TREES DOWN ON CARS...TREES BLOCKING ROAD IN ALL DIRECTIONS. (MOB)
2016-02-24 02:06:00+00:00,0206,UNK,2 ESE BRENT,ESCAMBIA,FL,30.46,-87.2,DUNWOODY DR.... TREES DOWN ON CARS... TREES BLOCKING ROAD IN ALL DIRECTIONS. (MOB)
2016-02-24 02:11:00+00:00,0211,UNK,5 NE BRENT,ESCAMBIA,FL,30.52,-87.17,MOORINGS APTS...PEOPLE TRAPPED RESCUES UNDERWAY... GAS LEAKS... CARS OVERTURNED... TREES DAMAGED. (MOB)
2016-02-15 21:33:00+00:00,2133,UNK,2 SW CENTURY,ESCAMBIA,FL,30.95,-87.29,BROADCAST MEDIA REPORTS MULTIPLE HOMES DAMAGED OR DESTROYED FROM MCDAVID TO CENTURY. RADAR OBSERVED TORNADO DEBRIS SIGNATURE. (MOB)
2016-02-24 02:20:00+00:00,0220,UNK,1 W BRENT,ESCAMBIA,FL,30.47,-87.25,1 MILE W OF YNIESTRA ON I-10. CAR BLOWN OFF INTERSTATE... TREES BLOCKING LANES OF HWY. AND DAMAGE TO FENCING. (MOB)
2017-06-20 14:15:00+00:00,1415,UNK,ST GEORGE ISLAND,FRANKLIN,FL,29.66,-84.86,BROADCAST MEDIA RETWEETED VIEWER PHOTO OF TORNADO OFF OF ST. GEORGE ISLAND COAST. (TAE)
2017-01-22 19:52:00+00:00,1952,UNK,1 W CREELS,FRANKLIN,FL,29.82,-84.93,TREES AND POWER LINES DOWN IN THE AREA WITH DUAL-POL TDS OBSERVED. ALSO PUBLIC REPORT OF A TORNADO IN THE AREA (TAE)
2016-11-30 16:38:00+00:00,1638,UNK,4 W FORT WALTON BEACH,OKALOOSA,FL,30.41,-86.68,WATERSPOUT MOVED ASHORE NEAR MARY ESTHER AND CAUSED DAMAGE TO A HOUSE ON KOHLER DR. TIME ESTIMATED VIA RADAR. (MOB)
2017-06-21 11:20:00+00:00,1120,UNK,FORT WALTON BEACH,OKALOOSA,FL,30.43,-86.58,NUMEROUS REPORTS OF TREES AND POWERLINES DOWN ACROSS THE FORT WALTON BEACH AREA ASSOCIATED WITH A PROBABLE TORNADO. TIME ESTIMATED VIA RADAR DATA (MOB)
2016-11-30 17:40:00+00:00,1740,UNK,4 E DESTIN,OKALOOSA,FL,30.39,-86.42,WEB CAM AND OKALOOSA COUNTY LAW ENFORCEMENT CONFIRM A TORNADO MOVED ONSHORE BETWEEN DESTIN AND MIRAMAR BEACH. (MOB)
2016-04-07 10:55:00+00:00,1055,UNK,3 ENE CLEARWATER,PINELLAS,FL,27.97,-82.71,TRAINED SPOTTER REPORT OF TORNADO OVER BAYSIDE BRIDGE. REPORTS OF SIGNS BENT OVER AND FENCE TORE DOWN AT BALLFIELD ON NORTH END OF BRIDGE. (TBW)
2015-01-24 08:45:00+00:00,0845,UNK,5 ENE ENGLEWOOD,SARASOTA,FL,26.99,-82.29,FLORIDA STATE WATCH OFFICE RELAYED MYAKKA STATE FOREST RANGER REPORT OF TORNADO DAMAGE TO RANGER STATION AND RESIDENCE AROUND 350 AM. TIME OF LSR BASED OFF RADAR DATA. (TBW)
2016-01-17 08:10:00+00:00,0810,UNK,5 S SARASOTA,SARASOTA,FL,27.26,-82.55,STRUCTURAL DAMAGE AND DAMAGE TO SEVERAL CONDOS IN THE 6200 BLOCK OF MIDNIGHT PASS ROAD ON SIESTA KEY. (TBW)
2016-01-17 08:15:00+00:00,0815,UNK,5 S SARASOTA,SARASOTA,FL,27.26,-82.55,TRAINED SPOTTER REPORTED NUMEROUS TREES AND SIGNS DOWN WITH BUILDING DAMAGE AT HWY 41 AND CLARK ROAD. ESTIMATED WINDS 70 MPH. (TBW)
2017-01-07 06:30:00+00:00,0630,UNK,4 WSW LIVE OAK,SUWANNEE,FL,30.27,-83.05,STORM SURVEY INDICATED A VERY BRIEF EF0 TORNADO WITH WINDS UP TO 80 MPH PRODUCED A QUARTER MILE OF DAMAGE THAT EXTENDED FROM NEAR THE INTERSECTION OF 96TH PLACE AND 147 (JAX)
2016-02-24 18:15:00+00:00,1815,UNK,MURDOCK,CHARLOTTE,FL,27.01,-82.15,DAMAGE REPORTED IN MURDOCK OF TREES DOWN...LIGHT POSTS DAMAGED...WINDOWS AND BUILDING DAMAGE. TIME ESTIMATED BASED OFF OF RADAR. (TBW)
2017-09-10 23:50:00+00:00,2350,UNK,1 N VILANO BEACH,ST. JOHNS,FL,29.96,-81.31,THIS TORNADO TOUCHED DOWN ON VILLANO BEACH NEAR 4TH AND 5TH STREET CAUSING MINOR TREE DAMAGE AS IT MOVED WEST. AFTER CROSSING THE INTER-COASTAL WATERWAY THE TORNADO INT (JAX)
2017-02-08 03:37:00+00:00,0337,UNK,5 NE PICOLATA,ST. JOHNS,FL,29.96,-81.53,NWS STORM SURVEY CONFIRMED AN EF1 TORNADO WITH 100 MPH PEAK WINDS WITH TRACK LENGTH OF 0.6 MILES THAT WAS 0.1 MILES WIDE. (JAX)
2017-06-06 18:10:00+00:00,1810,UNK,1 SE DUPONT CENTER,ST. JOHNS,FL,29.75,-81.3,DAMAGE SURVEY ONGOING. PRELIMINARY RESULTS OF WEAK EF-1 DAMAGE. (JAX)
2017-05-24 12:54:00+00:00,1254,UNK,2 SSE CRESCENT BEACH,ST. JOHNS,FL,29.7,-81.22,VERY WEAK TORNADO SEEN BY SKYWARN SPOTTER JUST SOUTH OF SUMMER HAVEN. BEGAN AS A WATERSPOUT IN THE INTRACOASTAL WATERWAY... MOVED ACROSS BARRIER ISLAND AND THEN INTO TH (JAX)
2015-06-10 18:34:00+00:00,1834,UNK,1 SW ELKTON,ST. JOHNS,FL,29.78,-81.43,ST JOHNS COUNTY EMERGENCY MANAGEMENT REPORTED A PACKING SHED DESTROYED NEAR MEADOWBROOK ROAD AND STATE ROAD 207. THE TORNADO CONTINUED ACROSS A POTATO FIELD AND ACROSS (JAX)
2017-09-10 17:40:00+00:00,1740,UNK,1 N SAINT AUGUSTINE,ST. JOHNS,FL,29.9,-81.31,THIS TORNADO PASSED THE NORTHERN SIDE OF CASTILLO DE SAN MARCOS UPROOTING 2 TREES BEFORE STRENGTHENING TO EF-1 AND MOVING INTO THE HUGUENOT CEMETERY. MULTIPLE TREES WER (JAX)
2016-05-17 18:55:00+00:00,1855,UNK,LAKEWOOD PARK,ST. LUCIE,FL,27.54,-80.4,NWS SURVEY TEAM HAS CONFIRMED A TORNADO TOUCHED DOWN IN LAKEWOOD PARK WITH A WELL-DEFINED DAMAGE PATH. INFORMATION ABOUT WIND SPEEDS... PATH LENGTH AND WIDTH... INCLUDING M (
2016-05-17 19:15:00+00:00,1915,UNK,5 NW FORT PIERCE,ST. LUCIE,FL,27.5,-80.38,NWS SURVEY TEAM DETERMINED THAT AN EF-0 TORNADO WITH APPROXIMATE WIND SPEEDS OF 65 TO 75 MPH TOUCHED DOWN IN A TRAILER PARK JUST WEST OF THE SAINT LUCIE COUNTY AIRPORT. (MLB)
2017-09-10 23:52:00+00:00,2352,UNK,4 N ST. AUGUSTINE,St. Johns,FL,29.95,-81.31,MEDIA PASSED ON REPORT BY PUBLIC OF POSSIBLE TORNADO AT VILANO BEACH AT 4TH STREET. (JAX)
2016-02-16 12:56:00+00:00,1256,UNK,2 E DOLPHINS STADIUM,MIAMI-DADE,FL,25.95,-80.21,A POSSIBLE TORNADO CAUSED DAMAGE AT A HARLEY DAVIDSON MOTORCYCLE SHOP. ALL OF THE MOTORCYCLES HAVE BEEN TOSSED AROUND AND A CAR DEALERSHIP AWNING HAS BEEN DAMAGED. (MFL)
2017-09-09 23:20:00+00:00,2320,UNK,4 W HOMESTEAD PARK,MIAMI-DADE,FL,25.44,-80.39,A TORNADO WAS REPORTED BY A MEMBER OF THE PUBLIC AROUND HOMESTEAD MOTOR SPEEDWAY AT 720 PM EDT. MORE INFORMATION WILL BE ADDED AS INFORMATION BECOMES AVAILABLE (MFL)
2017-10-28 17:20:00+00:00,1720,UNK,2 SE TAMIAMI FAIRGROUND,MIAMI-DADE,FL,25.74,-80.35,DAMAGE TO ROOFS AND AWNINGS... FENCES AND POWER LINES DOWNED... AND SMALL TREES SNAPPED. (MFL)
2017-01-23 08:45:00+00:00,0845,UNK,1 WNW VIRGINIA GARDENS,MIAMI-DADE,FL,25.82,-80.32,EF-1 DAMAGE INDICATED BY SURVEY. DAMAGE TO WAREHOUSES... TRUCKS... AND SHIPPING CONTAINERS. (MFL)
2016-02-16 12:50:00+00:00,1250,UNK,1 NNW NORTH MIAMI BEACH,MIAMI-DADE,FL,25.95,-80.17,THERE WAS A POSSIBLE TORNADO NEAR THE INTERSECTION OF NE 191ST AND NE 15TH AVE. THERE WERE REPORTS OF ROOF DAMAGE AS WELL AS A POOL AREA DAMAGED. WINDOWS WERE ALSO BLOW (MFL)
2017-05-02 21:30:00+00:00,2130,UNK,5 NE BELLE GLADE,PALM BEACH,FL,26.74,-80.61,A MEMBER OF THE BROADCAST MEDIA RELAYED A VIDEO OF A TORNADO SEEN FROM US 441 BETWEEN BELLE GLADE AND PAHOKEE. LOCATION AND TIME IS ESTIMATED BASED ON RADAR DATA. THERE (MFL)
2017-01-23 06:45:00+00:00,0645,UNK,2 W JUNO BEACH,PALM BEACH,FL,26.88,-80.09,EF-0 DAMAGE CONFIRMED BY SURVEY CREW. TREE DAMAGE. WINDS ESTIMATED AT 75-80 MPH (MFL)
2015-08-03 20:05:00+00:00,2005,UNK,4 WSW RIVIERA BEACH,PALM BEACH,FL,26.76,-80.14,VIDEO...PHOTOS...AND EYEWITNESS REPORT INDICATE TORNADO TOUCHDOWN WEST OF DYER PARK IN THE VICINITY OF THE LANDFILL WEST OF THE FLORIDA TURNPIKE. NO REPORTED DAMAGE (MFL)
2015-06-10 20:35:00+00:00,2035,UNK,TEQUESTA,PALM BEACH,FL,26.97,-80.09,VIDEO OBTAINED FROM WEST PALM BEACH BROADCAST MEDIA SHOWED A LIKELY TORNADIC CIRCULATION AT THE COUNTY LINE PLAZA IN TEQUESTA. DAMAGE APPEARED TO BE LIMITED TO UPROOTED (MFL)
2016-01-28 15:35:00+00:00,1535,UNK,1 SW OCEAN RIDGE,PALM BEACH,FL,26.52,-80.06,REPORTS FROM MULTIPLE SOURCES OF TREE AND POWER LINE DAMAGE FROM DELRAY BEACH TO BOYNTON BEACH AND OCEAN RIDGE. LIKELY CAUSED BY TORNADO WHICH MOVED N-NE FROM ATLANTIC (MFL)
2017-10-28 22:23:00+00:00,2223,UNK,WEST PALM BEACH,PALM BEACH,FL,26.71,-80.06,VIDEO OF A TORNADO NEAR KRAVIS CENTER IN DOWNTOWN WEST PALM BEACH VIA CBS 12 PALM BEACH. TIME ESTIMATED BY RADAR. (MFL)
2017-10-28 21:42:00+00:00,2142,UNK,2 NW BOYNTON BEACH,PALM BEACH,FL,26.55,-80.11,DAMAGE TO MULTIPLE MOBILE HOMES AT A TRAILER PARK NEAR INTERSECTION OF NW 22ND AVE AND LAWRENCE RD IN BOYNTON BEACH. LIKELY TORNADO. TIME ESTIMATED VIA RADAR. (MFL)
2017-10-28 22:18:00+00:00,2218,UNK,2 SSW WEST PALM BEACH,PALM BEACH,FL,26.69,-80.07,TORNADO REPORTED AND CAPTURED ON VIDEO BY TRAINED SPOTTER NEAR BELVEDERE RD AND INTERSTATE 95. TIME ESTIMATED VIA RADAR. (MFL)
2015-02-05 12:36:00+00:00,1236,UNK,1 ENE BOCA WEST,PALM BEACH,FL,26.38,-80.15,PRELIMINARY RATING OF EF-1. SEVERAL TREES UPROOTED OR SNAPPED HALFWAY UP TRUNKS. TREE ONTO HOUSE. ROOF AND WINDOW DAMAGES. (MFL)
2017-01-23 06:39:00+00:00,0639,UNK,3 WNW FAU NORTH CAMPUS,PALM BEACH,FL,26.86,-80.14,EF-1 DAMAGE CONFIRMED BY SURVEY CREW. TREES SNAPPED AT TRUNKS. WINDS ESTIMATED AT 90 MPH (MFL)
2015-04-23 18:44:00+00:00,1844,UNK,4 NNW BELLE GLADE,PALM BEACH,FL,26.74,-80.7,MULTIPLE REPORTS OF WATERSPOUT COMING ONSHORE NW OF BELLE GLADE. ESTIMATED STRENGTH EF-0. NO DAMAGE REPORTED. DURATION OF APPROXIMATELY 3 MINUTES. TIMES ESTIMATED VIA R (MFL)
2015-08-03 20:00:00+00:00,2000,UNK,3 N FLORIDA GARDENS,PALM BEACH,FL,26.66,-80.17,VIDEO FROM OKEEHEELEE PARK OF DAMAGE CONSISTING OF DOWNED TREES AND LARGE BRANCHES AS WELL AS ROOF BLOWN OFF DEROOFING. DAMAGE CONSISTENT WITH EF-0 TORNADO. (MFL)
2015-12-28 14:31:00+00:00,1431,UNK,CHUMUCKLA,SANTA ROSA,FL,30.78,-87.24,RADAR CONFIRMED TORNADO. (MOB)
2016-02-24 02:18:00+00:00,0218,UNK,5 SE PACE,SANTA ROSA,FL,30.55,-87.11,INTERSECTION OF 14TH AND SAN MIGUEL CLOSED DUE TO DEBRIS ON ROADWAY. (MOB)
2015-11-02 17:00:00+00:00,1700,UNK,3 SSW GILBERTS MILL,WASHINGTON,FL,30.59,-85.51,TORNADO TOUCHDOWN AT RUFUS ROAD AND HARTFORD BLVD. ADDITIONAL INFORMATION WILL BE ADDED LATER. (TAE)
2016-02-24 17:45:00+00:00,1745,UNK,6 NE DUETTE,HILLSBOROUGH,FL,27.65,-82.06,TORNADO MOVED THROUGH OPEN FIELD OBSERVED BY MOSAIC PLANT WORKERS. TIME ESTIMATED OFF OF RADAR. (TBW)
2016-05-17 18:48:00+00:00,1848,UNK,VERO BEACH HIGHLANDS,INDIAN RIVER,FL,27.57,-80.39,NWS STORM SURVEY DETERMINED AN EF-1 TORNADO WITH 0.25 MILE LENGTH... 100 YARD WIDTH... WINDS 80-90 MPH. TWO HOMES WITH MAJOR DAMAGE... 16 HOMES WITH MINOR DAMAGE MAINLY TO RO
2017-08-18 21:40:00+00:00,2140,UNK,4 E BLUE CYPRESS LAKE,INDIAN RIVER,FL,27.73,-80.68,INDIAN RIVER COUNTY DEPUTY AND RELAYED VIDEOS CONFIRM A BRIEF LANDSPOUT TOUCHED DOWN IN AN UNPOPULATED MARSH AREA. TIME ESTIMATED. (MLB)
2017-08-11 21:03:00+00:00,2103,UNK,3 E KEY WEST,LOWER KEYS IN MON,FL,24.56,-81.73,DELAYED REPORT. STORM SURVEY CONFIRMED AN EF-0 TORNADO OCCURRED NEAR STOCK ISLAND WATERFRONT. DAMAGE TO ROOFS... SHEDS... AND BOAT COVERINGS OCCURRED. NUMEROUS SMALL TR (KEY)
2016-01-08 11:38:00+00:00,1138,UNK,MARATHON,MIDDLE KEYS IN MO,FL,24.71,-81.08,AT APPROXIMATELY 638 AM EST A WATERSPOUT CAME ASHORE ON COCO PLUM DRIVE IN MARATHON. THIS TORNADO CAUSED MINOR CANOPY DAMAGE TO A BUSINESS IN THE AREA. COUNTY EMERGENCY (KEY)
2016-02-24 06:26:00+00:00,0626,UNK,3 SSE CHOKEE,LEE,GA,31.85,-84.02,ROOF OFF OF BRICK HOUSE AND MOBILE HOME SEVERELY DAMAGED AND DEBRIS IN TREES ON GRAY MOSS RD. NO INJURIES. (TAE)
2017-01-22 19:39:00+00:00,1939,UNK,2 NE HARRISONS MILL,CLAY,GA,31.57,-84.86,TORNADO TOUCHED DOWN IN CLAY COUNTY AND MOVED INTO FAR NORTHWEST CALHOUN COUNTY AND THEN RANDOLPH COUNTY. RATED EF2 WITH DAMAGE TO STRUCTURES AND TREES. (TAE)
2016-11-30 18:42:00+00:00,1842,UNK,CARDELL,COBB,GA,33.78,-84.54,ROOF DAMAGE AND MULTIPLE TREES AND POWER LINES WERE REPORTED DOWN IN THE AREA OF DISCOVERY BLVD AND MABLETON PARKWAY. (FFC)
2017-01-22 08:45:00+00:00,0845,UNK,5 SE ADEL,COOK,GA,31.08,-83.37,DAMAGE REPORTED ON CAULIE HARRIS ROAD WITH DUAL POL TDS SIGNATURE (TAE)
2017-05-24 20:48:00+00:00,2048,UNK,4 ENE ADEL,COOK,GA,31.17,-83.36,SPORADIC INSTANCES OF TREES SNAPPED AND UPROOTED ALONG WITH MINOR STRUCTURAL DAMAGE CONSISTING OF METAL ROOF AND SHINGLE DAMAGE. RATED EF0 WITH PEAK WINDS ESTIMATED NEA (TAE)
2016-06-26 17:45:00+00:00,1745,UNK,REED BINGHAM STATE PARK,COOK,GA,31.17,-83.54,VIDEO TAKEN BY THE PUBLIC AND RELAYED BY MEDIA CONFIRMED THAT A VERY BRIEF TORNADO OCCURRED NEAR REED BINGHAM STATE PARK ON SUNDAY AFTERNOON. THE TORNADO APPEARED TO LA (TAE)
